elevation,mindate,maxdate,latitude,name,datacoverage,id,elevationUnit,longitude
164,1935-07-01,2015-11-01,40.8821,"GLADSTONE DAM 18, IL US",0.9741,COOP:113455,METERS,-91.0234
167.6,1935-07-01,2015-11-01,41.4255,"ILLINOIS CITY DAM 16, IL US",0.9772,COOP:114355,METERS,-91.0094
173.1,1985-06-01,2015-11-01,41.518,"ROCK ISLAND LOCK AND DAM 15, IL US",0.9479,COOP:117391,METERS,-90.5647
420.6,1971-01-01,2012-09-01,41.5013,"ADAIR, IA US",0.0217,COOP:130046,METERS,-94.6355
365.2,1931-01-01,2015-11-01,42.8258,"AKRON, IA US",0.7969,COOP:130088,METERS,-96.5514
420.6,2010-06-01,2012-12-01,42.83528,"AKRON 11 E, IA US",0.9985,COOP:130089,METERS,-96.34333
268.2,1931-01-01,2015-11-01,41.0655,"ALBIA 3 NNE, IA US",0.9833,COOP:130112,METERS,-92.7866
370,1931-01-01,2015-11-01,43.06626,"ALGONA, IA US",0.999,COOP:130133,METERS,-94.22216
332.2,1948-08-01,2015-11-01,40.70392,"ALLERTON, IA US",0.2896,COOP:130149,METERS,-93.37027
316.4,1931-01-01,2015-11-01,42.7536,"ALLISON, IA US",0.9863,COOP:130157,METERS,-92.8022
413,1931-01-01,2009-12-01,42.998,"ALTON, IA US",0.9884,COOP:130181,METERS,-96.0175
335,1964-09-01,2015-11-01,42.0208,"AMES 8 WSW, IA US",1,COOP:130200,METERS,-93.7741
265.2,1978-05-01,2015-11-01,41.9519,"AMES 5 SE, IA US",0.9911,COOP:130203,METERS,-93.5655
245.4,1937-05-01,2010-12-01,42.1117,"ANAMOSA 1 WNW, IA US",1,COOP:130213,METERS,-91.2933
297.2,1950-05-01,2015-11-01,41.73229,"ANKENY, IA US",0.9835,COOP:130241,METERS,-93.64999
351.1,1931-01-01,2015-11-01,41.4175,"ATLANTIC 1 NE, IA US",0.9873,COOP:130364,METERS,-95.0041
353.6,2010-05-01,2012-12-01,41.3061,"ATLANTIC 5 SW, IA US",0.998,COOP:130372,METERS,-95.0847
390.1,1931-01-01,2015-11-01,41.7069,"AUDUBON, IA US",0.9922,COOP:130385,METERS,-94.9222
191.7,1936-12-01,2015-11-01,40.7472,"AUGUSTA, IA US",0.557,COOP:130389,METERS,-91.275
344.4,2010-08-01,2010-11-01,42.63222,"BALLTOWN 3 W, IA US",0.998,COOP:130455,METERS,-90.91889
420.6,2011-01-01,2015-11-01,42.37,"BATTLE CREEK 3 NE, IA US",1,COOP:130512,METERS,-95.575
370.3,1956-02-01,2015-11-01,40.8069,"BEACONSFIELD, IA US",0.9875,COOP:130536,METERS,-94.0474
362.7,1931-01-01,2015-11-01,40.6741,"BEDFORD, IA US",0.9853,COOP:130576,METERS,-94.7244
246.9,1931-01-01,2015-11-01,41.8814,"BELLE PLAINE, IA US",0.999,COOP:130600,METERS,-92.2764
183.8,1937-05-01,2015-11-01,42.2611,"BELLEVUE L AND D 12, IA US",0.9872,COOP:130608,METERS,-90.4231
362.7,1943-01-01,2015-11-01,40.6188,"BLOCKTON 1 W, IA US",0.9441,COOP:130745,METERS,-94.505
261.5,1935-03-01,2015-11-01,40.7392,"BLOOMFIELD, IA US",0.9907,COOP:130753,METERS,-92.4142
315.5,1931-01-01,2015-11-01,42.0416,"BOONE, IA US",0.9981,COOP:130807,METERS,-93.8905
453.2,1950-10-01,2014-01-01,42.1255,"BOYER 4 SE, IA US",0.0308,COOP:130853,METERS,-95.1886
225.9,1989-04-01,2015-11-01,41.17146,"BRIGHTON, IA US",0.9969,COOP:130910,METERS,-91.82555
371.9,1931-01-01,2015-11-01,43.10554,"BRITT 3 E, IA US",0.9637,COOP:130923,METERS,-93.74444
270.1,1995-03-01,2015-11-01,41.7394,"BROOKLYN, IA US",0.9999,COOP:130933,METERS,-92.44
387.1,2010-06-01,2010-12-01,42.8077,"BRUNSVILLE, IA US",0.9956,COOP:130940,METERS,-96.2691
350.5,1978-05-01,2009-12-01,42.4172,"BUCKEYE, IA US",0.9946,COOP:130999,METERS,-93.3775
210.3,1964-12-01,2015-11-01,40.7747,"BURLINGTON 2 S, IA US",0.9722,COOP:131060,METERS,-91.1165
210.9,1948-01-01,2010-01-01,40.78333,"BURLINGTON MUNICIPAL AIRPORT, IA US",0.5933,COOP:131063,METERS,-91.12528
376.4,2009-02-01,2015-11-01,43.1876,"CALMAR NE, IA US",1,COOP:131126,METERS,-91.862
378,1931-01-01,2015-11-01,42.065,"CARROLL, IA US",1,COOP:131233,METERS,-94.85
332.2,1950-10-01,2014-01-01,41.2738,"CARSON 3 NNE, IA US",0.0337,COOP:131245,METERS,-95.4025
252.4,1947-07-01,2015-11-01,42.2973,"CASCADE, IA US",0.9927,COOP:131257,METERS,-91.0199
426.7,1948-07-01,2015-11-01,42.0633,"CASTANA EXPERIMENTAL FARM, IA US",0.9975,COOP:131277,METERS,-95.8363
264.6,1953-06-01,2015-11-01,41.8833,"CEDAR RAPIDS MUNICIPAL AIRPORT, IA US",0.9293,COOP:131314,METERS,-91.7166
247.8,1931-01-01,2015-11-01,42.0496,"CEDAR RAPIDS NUMBER 1, IA US",0.999,COOP:131319,METERS,-91.5881
275.8,1931-01-01,2015-11-01,40.7324,"CENTERVILLE, IA US",0.9794,COOP:131354,METERS,-92.8899
252.4,1955-12-01,2015-11-01,42.20011,"CENTRAL CITY, IA US",0.9665,COOP:131363,METERS,-91.52332
294.1,1931-01-01,2015-11-01,41.0163,"CHARITON 1 E, IA US",0.9863,COOP:131394,METERS,-93.2791
302.7,1931-01-01,2015-11-01,43.0604,"CHARLES CITY, IA US",0.9981,COOP:131402,METERS,-92.6717
368.8,1931-01-01,2015-11-01,42.7572,"CHEROKEE, IA US",1,COOP:131442,METERS,-95.5377
298.7,1931-01-01,2015-11-01,40.7244,"CLARINDA, IA US",0.9981,COOP:131533,METERS,-95.0191
352.3,1944-08-01,2015-11-01,42.72,"CLARION, IA US",0.9883,COOP:131541,METERS,-93.7336
178.3,1931-01-01,2015-11-01,41.7947,"CLINTON NUMBER 1, IA US",1,COOP:131635,METERS,-90.2639
266.7,1978-05-01,2015-11-01,42.08,"CLUTIER, IA US",0.9844,COOP:131704,METERS,-92.405
275.2,2005-03-01,2015-11-01,42.2792,"COGGON, IA US",0.9999,COOP:131705,METERS,-91.525
304.8,1964-10-01,2009-02-01,42.0169,"COLO, IA US",1,COOP:131710,METERS,-93.3188
289.6,1971-01-01,2012-09-01,41.1755,"COLUMBIA, IA US",0.0264,COOP:131724,METERS,-93.1522
181.4,1931-01-01,2008-09-01,41.2864,"COLUMBUS JUNCT 2 SSW, IA US",0.9893,COOP:131731,METERS,-91.361
312.4,1978-05-01,2015-11-01,42.2244,"CONRAD, IA US",0.8558,COOP:131742,METERS,-92.8855
355.1,1948-08-01,2012-09-01,41.8747,"COON RAPIDS, IA US",0.0312,COOP:131793,METERS,-94.6705
362.7,1931-01-01,2015-11-01,40.98833,"CORNING, IA US",0.9813,COOP:131833,METERS,-94.75889
382.5,1937-01-01,2015-11-01,43.3894,"CRESCO 1 NE, IA US",0.999,COOP:131954,METERS,-92.0938
395,1931-01-01,2015-11-01,41.0372,"CRESTON 2 SW, IA US",0.9745,COOP:131962,METERS,-94.3936
338.3,2009-11-01,2015-11-01,42.7255,"DAKOTA CITY, IA US",1,COOP:132041,METERS,-94.1952
262.1,1931-01-01,2015-11-01,43.3043,"DECORAH, IA US",0.9078,COOP:132110,METERS,-91.7952
427,1931-01-01,2015-11-01,42.0363,"DENISON, IA US",0.9981,COOP:132171,METERS,-95.3288
362.7,1948-08-01,2005-09-01,40.9308,"DERBY, IA US",0.0339,COOP:132195,METERS,-93.458
291.7,1948-08-01,2015-11-01,41.5338,"DES MOINES INTERNATIONAL AIRPORT, IA US",0.9802,COOP:132203,METERS,-93.653
292.3,1993-12-01,2015-11-01,41.7366,"DES MOINES WSFO JOHNSTON, IA US",0.9091,COOP:132209,METERS,-93.7236
208.8,1954-09-01,2015-11-01,41.8108,"DE WITT, IA US",0.9728,COOP:132235,METERS,-90.5405
339.9,1948-08-01,2014-01-01,41.5077,"DEXTER, IA US",0.0312,COOP:132240,METERS,-94.2269
214.9,1937-07-01,2015-11-01,40.6458,"DONNELLSON, IA US",0.9617,COOP:132299,METERS,-91.564
231,1948-04-01,2013-12-01,43.4705,"DORCHESTER, IA US",0.9468,COOP:132311,METERS,-91.5109
189,1937-05-01,2015-11-01,42.5399,"DUBUQUE LOCK AND DAM 11, IA US",0.9968,COOP:132364,METERS,-90.6461
321.9,1951-02-01,2015-11-01,42.39778,"DUBUQUE REGIONAL AIRPORT, IA US",0.9833,COOP:132367,METERS,-90.70361
312.4,1934-01-01,2008-10-01,42.7544,"DUMONT, IA US",0.9955,COOP:132388,METERS,-92.9763
229.8,2006-06-01,2006-11-01,42.57,"DURANGO 3 W, IA US",0.998,COOP:132410,METERS,-90.83583
327.1,1949-04-01,2015-11-01,42.3652,"ELDORA, IA US",0.9963,COOP:132573,METERS,-93.0971
240.2,1934-11-01,2015-11-01,42.7754,"ELKADER, IA US",0.999,COOP:132603,METERS,-91.4537
357.2,2003-09-01,2015-11-01,43.2419,"ELMA, IA US",0.9797,COOP:132638,METERS,-92.4433
373.4,1942-06-01,2015-11-01,43.1024,"EMMETSBURG, IA US",0.9161,COOP:132689,METERS,-94.6833
402.3,1931-01-01,2015-11-01,43.4036,"ESTHERVILLE 4 E, IA US",0.9922,COOP:132724,METERS,-94.7472
301.8,2006-08-01,2008-01-01,42.6404,"FAIRBANK, IA US",0.998,COOP:132778,METERS,-92.0291
225.6,1908-01-01,2015-11-01,41.021,"FAIRFIELD, IA US",0.9985,COOP:132789,METERS,-91.9553
349,1888-01-01,2015-11-01,42.88262,"FAYETTE, IA US",0.9864,COOP:132864,METERS,-91.83025
390.1,1931-01-01,2015-11-01,43.2844,"FOREST CITY 2 NNE, IA US",0.9676,COOP:132977,METERS,-93.6305
339.9,1931-01-01,2015-11-01,42.5836,"FORT DODGE 5 NNW, IA US",0.9932,COOP:132999,METERS,-94.2005
161.5,1952-10-01,2015-11-01,40.6222,"FORT MADISON, IA US",0.9868,COOP:133007,METERS,-91.334
213.1,2009-09-01,2015-11-01,42.1575,"FULTON, IA US",1,COOP:133032,METERS,-90.7063
426.7,1978-05-01,2009-12-01,42.5027,"GALVA, IA US",0.9972,COOP:133108,METERS,-95.4183
285.9,1978-05-01,2012-12-01,42.09022,"GARWIN, IA US",0.983,COOP:133120,METERS,-92.6703
312.4,1978-05-01,2015-11-01,41.878,"GILMAN, IA US",0.98,COOP:133239,METERS,-92.7786
323.1,2008-11-01,2015-11-01,41.0516,"GLENWOOD, IA US",1,COOP:133288,METERS,-95.7491
298.7,1931-01-01,2008-08-01,41.0097,"GLENWOOD 3 SW, IA US",0.9893,COOP:133290,METERS,-95.7736
401.1,1931-01-01,2015-11-01,41.29415,"GREENFIELD, IA US",0.9765,COOP:133438,METERS,-94.44564
275.8,1931-01-01,2015-11-01,41.72,"GRINNELL 3 SW, IA US",1,COOP:133473,METERS,-92.749
300.2,1931-01-01,2015-11-01,42.3647,"GRUNDY CENTER, IA US",0.999,COOP:133487,METERS,-92.7594
324.6,1931-01-01,2015-11-01,41.6686,"GUTHRIE CENTER, IA US",0.9647,COOP:133509,METERS,-94.4972
188.4,1937-05-01,2015-11-01,42.7858,"GUTTENBERG L AND D 10, IA US",1,COOP:133517,METERS,-91.0958
274.3,1948-08-01,2009-07-01,40.61528,"HAMBURG 2, IA US",0.0264,COOP:133562,METERS,-95.65333
336.8,1931-01-01,2015-11-01,42.756,"HAMPTON, IA US",0.9833,COOP:133584,METERS,-93.202
399.3,2006-01-01,2008-08-01,41.3277,"HANCOCK 7 SE, IA US",0.9375,COOP:133590,METERS,-95.2522
387.1,1931-01-01,2015-11-01,41.6452,"HARLAN, IA US",0.9971,COOP:133632,METERS,-95.3339
320,2008-01-01,2015-11-01,41.0772,"HASTINGS 4 NE, IA US",1,COOP:133675,METERS,-95.48
362.7,1931-01-01,2015-11-01,43.003,"HAWARDEN, IA US",1,COOP:133718,METERS,-96.485
335.3,2009-03-01,2015-11-01,42.2802,"HOLLY SPRINGS, IA US",0.9998,COOP:133900,METERS,-96.0961
417.6,1951-05-01,2015-11-01,42.4897,"HOLSTEIN, IA US",1,COOP:133909,METERS,-95.5488
326.1,1948-08-01,2014-01-01,42.1558,"HORNICK 5 S, IA US",0.0262,COOP:133944,METERS,-96.083
337.7,1978-05-01,2015-11-01,42.30363,"HUBBARD, IA US",0.9955,COOP:133960,METERS,-93.28961
335.3,1997-06-01,2009-05-31,42.7197,"HUMBOLDT WATER PLANT, IA US",1,COOP:133980,METERS,-94.2202
402.3,1945-01-01,2008-02-25,42.3941,"IDA GROVE 5 NW, IA US",0.9789,COOP:134038,METERS,-95.515
307.8,1978-06-01,2009-05-01,42.527,"INDEPENDENCE NUMBER 1, IA US",0.9677,COOP:134049,METERS,-91.878
281.6,1931-01-01,2015-11-01,41.36639,"INDIANOLA 2 W, IA US",0.9873,COOP:134063,METERS,-93.64806
310.6,2002-11-01,2015-11-01,43.0336,"IONIA 2 W, IA US",0.9874,COOP:134094,METERS,-92.5018
195.1,1931-01-01,2015-11-01,41.6093,"IOWA CITY, IA US",0.9804,COOP:134101,METERS,-91.5051
321.6,1931-01-01,2015-11-01,42.5188,"IOWA FALLS, IA US",0.9775,COOP:134142,METERS,-93.2536
399.3,1950-10-01,2014-01-01,41.775,"IRWIN 3 ESE, IA US",0.0343,COOP:134174,METERS,-95.1525
321.6,1931-01-01,2015-11-01,42.0103,"JEFFERSON, IA US",0.9843,COOP:134228,METERS,-94.39523
318.5,1949-04-01,2015-11-01,42.3008,"JEWELL, IA US",0.9388,COOP:134244,METERS,-93.6388
361.2,1949-04-01,2015-11-01,42.9311,"KANAWHA, IA US",0.9763,COOP:134308,METERS,-93.7933
332.2,1997-01-01,2015-11-01,42.0727,"KENNEBEC, IA US",0.9958,COOP:134342,METERS,-95.9955
160.6,1931-01-01,2015-11-01,40.3968,"KEOKUK LOCK DAM 19, IA US",0.9961,COOP:134381,METERS,-91.3749
191.7,1931-01-01,2015-11-01,40.7356,"KEOSAUQUA, IA US",0.9892,COOP:134389,METERS,-91.9696
272.8,1931-01-01,2015-11-01,41.3247,"KNOXVILLE, IA US",0.9824,COOP:134502,METERS,-93.1008
227.1,2011-01-01,2014-12-01,41.7565,"LADORA, IA US",1,COOP:134529,METERS,-92.1845
384,1955-05-01,2015-11-01,43.4177,"LAKE MILLS, IA US",1,COOP:134557,METERS,-93.5347
446.5,1931-01-01,2015-11-01,43.4483,"LAKE PARK, IA US",0.9902,COOP:134561,METERS,-95.3247
343.8,1931-01-01,2015-11-01,40.6233,"LAMONI, IA US",0.8381,COOP:134585,METERS,-93.9343
345.9,1944-02-01,2015-11-01,40.6306,"LAMONI MUNICIPAL AIRPORT, IA US",0.2634,COOP:134587,METERS,-93.9008
196,1931-01-01,2003-01-01,43.36333,"LANSING, IA US",0.9954,COOP:134620,METERS,-91.21611
253,2003-10-01,2013-12-01,43.3197,"LANSING 4 SE, IA US",0.9997,COOP:134624,METERS,-91.1616
364.2,1931-01-01,2015-11-01,42.7816,"LE MARS, IA US",0.9971,COOP:134735,METERS,-96.1458
383.1,1948-08-01,2014-01-01,40.8747,"LENOX, IA US",0.0281,COOP:134746,METERS,-94.5717
304.8,1962-01-01,2011-12-01,40.7244,"LEON 6 ESE, IA US",0.995,COOP:134758,METERS,-93.6452
312.4,2002-09-01,2015-11-01,41.8263,"LITTLE SIOUX 2 NW, IA US",0.9938,COOP:134874,METERS,-96.0505
301.8,1931-01-01,2015-11-01,41.638,"LOGAN, IA US",0.9971,COOP:134894,METERS,-95.7883
370.3,1950-05-01,2015-11-01,41.1247,"LORIMOR, IA US",0.9707,COOP:134926,METERS,-94.0513
224.9,1987-06-01,2015-11-01,41.86044,"LOWDEN, IA US",1,COOP:134963,METERS,-90.9222
301.8,1976-05-01,2015-11-01,42.4732,"MANCHESTER NUMBER 2, IA US",0.9979,COOP:135086,METERS,-91.4516
365.8,1937-11-01,2015-11-01,42.162,"MAPLETON NUMBER 2, IA US",0.9787,COOP:135123,METERS,-95.7836
203.6,1931-01-01,2015-11-01,42.0771,"MAQUOKETA, IA US",0.9725,COOP:135131,METERS,-90.6647
225.6,2011-01-01,2015-11-01,41.7967,"MARENGO, IA US",0.9326,COOP:135150,METERS,-92.0707
265.2,1948-08-01,2015-11-01,42.0647,"MARSHALLTOWN, IA US",0.9877,COOP:135198,METERS,-92.9244
336.8,1931-01-01,2015-11-01,43.163,"MASON CITY, IA US",0.9873,COOP:135230,METERS,-93.1952
334.4,2000-10-01,2015-11-01,43.1533,"MASON CITY NUMBER 1, IA US",0.9946,COOP:135232,METERS,-93.198
373.4,1941-10-01,2015-11-01,43.1544,"MASON CITY MUNICIPAL AIRPORT, IA US",0.9989,COOP:135235,METERS,-93.3269
399.3,1979-06-01,2015-11-01,41.2552,"MASSENA, IA US",0.984,COOP:135250,METERS,-94.765
266.7,1971-01-01,2012-09-01,41.8875,"MAXWELL, IA US",0.0223,COOP:135295,METERS,-93.3919
191.1,1951-10-01,2014-01-01,43.024,"MCGREGOR, IA US",0.0381,COOP:135315,METERS,-91.1746
427.3,1939-01-01,2015-11-01,43.3827,"MILFORD 4 NW, IA US",0.9957,COOP:135493,METERS,-95.1841
347.5,1996-12-01,2002-12-01,41.17694,"MINEOLA 5 NW, IA US",1,COOP:135552,METERS,-95.76833
365.8,1948-08-01,2014-01-01,41.5736,"MISSOURI VALLEY 1 NN, IA US",0.0245,COOP:135584,METERS,-95.8811
289.6,1949-04-01,2015-11-01,41.5836,"MONTEZUMA 1 W, IA US",0.9487,COOP:135650,METERS,-92.5497
347.5,1931-01-01,2015-11-01,40.7052,"MOUNT AYR, IA US",0.9647,COOP:135769,METERS,-94.2427
222.5,1931-01-01,2015-11-01,40.9486,"MOUNT PLEASANT 1 SSW, IA US",0.9971,COOP:135796,METERS,-91.5647
365.8,1948-08-01,2014-01-01,42.4916,"MOVILLE, IA US",0.024,COOP:135823,METERS,-96.0688
167.3,1935-09-01,2015-11-01,41.4076,"MUSCATINE, IA US",0.9948,COOP:135837,METERS,-91.0727
207.3,1999-02-01,2015-11-01,41.4713,"MUSCATINE 2 N, IA US",1,COOP:135844,METERS,-91.0463
323.4,1984-01-01,2015-11-01,42.93618,"NASHUA 2 SW, IA US",0.5013,COOP:135876,METERS,-92.57006
349.9,1931-01-01,2015-11-01,43.0452,"NEW HAMPTON, IA US",0.9922,COOP:135952,METERS,-92.3123
292.6,1931-06-01,2015-11-01,41.7116,"NEWTON, IA US",0.997,COOP:135992,METERS,-93.0297
242.9,1948-08-01,2015-11-01,41.517,"NORTH ENGLISH, IA US",0.0941,COOP:136076,METERS,-92.0597
362.7,1931-01-01,2015-11-01,43.4386,"NORTHWOOD, IA US",0.9833,COOP:136103,METERS,-93.2252
384,1931-01-01,2015-11-01,41.3044,"OAKLAND, IA US",0.9539,COOP:136151,METERS,-95.3844
182,1991-02-01,2011-12-01,40.92694,"OAKLAND MILLS 3 W, IA US",0.9961,COOP:136160,METERS,-91.68
381,1978-05-01,2013-06-01,43.4144,"OCHEYEDAN, IA US",0.9782,COOP:136190,METERS,-95.5313
355.1,2006-01-01,2015-11-01,42.6801,"OELWEIN 1 E, IA US",1,COOP:136199,METERS,-91.8751
307.8,1931-01-01,2005-10-01,42.6467,"OELWEIN 2 S, IA US",0.9866,COOP:136200,METERS,-91.9131
326.7,1972-09-01,2012-09-01,42.0388,"OGDEN, IA US",0.0227,COOP:136209,METERS,-94.0419
323.1,1931-01-01,2010-12-01,42.0697,"ONAWA 3 NW, IA US",0.9979,COOP:136243,METERS,-96.1258
420.6,2010-07-01,2015-11-01,43.00056,"ORANGE CITY, IA US",0.9997,COOP:136273,METERS,-96.05389
356.6,1931-01-01,2015-11-01,43.2794,"OSAGE, IA US",0.9981,COOP:136305,METERS,-92.8106
313.3,1935-06-01,2015-11-01,41.0194,"OSCEOLA, IA US",0.9845,COOP:136316,METERS,-93.7502
253,1931-01-01,2015-11-01,41.3213,"OSKALOOSA, IA US",0.9932,COOP:136327,METERS,-92.6466
256.6,1948-01-01,2015-11-01,41.1077,"OTTUMWA INDUSTRIAL AIRPORT, IA US",0.9963,COOP:136389,METERS,-92.4466
253.9,2000-11-01,2012-12-01,41.0101,"OTTUMWA NUMBER 1, IA US",0.8835,COOP:136392,METERS,-92.5174
297.2,1978-05-01,2015-11-01,42.5772,"PARKERSBURG, IA US",0.8758,COOP:136492,METERS,-92.8049
237.7,1949-05-01,2015-11-01,41.3761,"PELLA 1 S, IA US",0.9887,COOP:136527,METERS,-92.9202
289.6,1931-01-01,2015-11-01,41.8394,"PERRY, IA US",0.9961,COOP:136566,METERS,-94.1105
369.4,1931-01-01,2015-11-01,42.7291,"POCAHONTAS, IA US",0.9559,COOP:136719,METERS,-94.6613
345.9,1931-01-01,2014-12-01,42.5863,"POPEJOY 1 S, IA US",0.6151,COOP:136755,METERS,-93.4363
355.1,1991-01-01,2015-11-01,43.09,"POSTVILLE, IA US",0.9265,COOP:136766,METERS,-91.5581
463.3,1936-10-01,2015-11-01,43.0863,"PRIMGHAR, IA US",0.9716,COOP:136800,METERS,-95.6291
298.7,1978-05-01,2015-11-01,40.8744,"RANDOLPH, IA US",0.9933,COOP:136891,METERS,-95.5666
294.1,1970-04-01,2015-11-01,40.825,"RATHBUN DAM, IA US",0.9872,COOP:136910,METERS,-92.8925
317,1938-05-01,2015-11-01,41.0036,"RED OAK, IA US",0.9968,COOP:136940,METERS,-95.2419
405.4,1948-08-01,2014-01-01,42.8169,"REMSEN, IA US",0.0313,COOP:136975,METERS,-95.9711
405.4,2010-06-01,2015-11-01,42.81028,"REMSEN NUMBER 2, IA US",0.9999,COOP:136976,METERS,-95.975
371.9,1948-08-01,2015-11-01,43.2947,"RINGSTED, IA US",0.0496,COOP:137058,METERS,-94.5116
411.5,1931-01-01,2015-11-01,43.43,"ROCK RAPIDS, IA US",0.9951,COOP:137147,METERS,-96.1686
379.8,1978-05-01,2015-11-01,43.2044,"ROCK VALLEY, IA US",0.9933,COOP:137152,METERS,-96.3061
370,1931-01-01,2015-11-01,42.3969,"ROCKWELL CITY, IA US",0.999,COOP:137161,METERS,-94.6291
371.9,1968-07-01,2012-08-25,42.3911,"ROCKWELL CITY NUMBER 2, IA US",0.0205,COOP:137167,METERS,-94.6288
368.8,1931-01-01,2015-11-01,42.4194,"SAC CITY, IA US",0.9775,COOP:137312,METERS,-94.9761
347.2,1948-08-01,2015-11-01,43.3817,"ST ANSGAR, IA US",0.1586,COOP:137326,METERS,-92.9232
323.7,1948-08-01,2014-01-01,41.2875,"ST CHARLES, IA US",0.0294,COOP:137340,METERS,-93.80778
472.7,1931-01-01,2015-11-01,43.1791,"SANBORN, IA US",0.9941,COOP:137386,METERS,-95.6602
349,1948-08-01,2014-01-01,42.9216,"SHEFFIELD 3 NW, IA US",0.0292,COOP:137572,METERS,-93.2827
390.1,1950-10-01,2014-01-01,41.5116,"SHELBY, IA US",0.0305,COOP:137582,METERS,-95.4413
432.8,1931-01-01,2015-11-01,43.18036,"SHELDON, IA US",0.9981,COOP:137594,METERS,-95.85321
284.4,1948-08-01,2014-01-01,42.70417,"SHELL ROCK 1 SW, IA US",0.034,COOP:137602,METERS,-92.59056
297.2,1934-09-01,2015-11-01,40.7672,"SHENANDOAH, IA US",0.9836,COOP:137613,METERS,-95.38
466,1935-05-01,2015-11-01,43.4047,"SIBLEY 3 NE, IA US",0.9865,COOP:137664,METERS,-95.7483
347.5,1949-04-01,2015-11-01,40.736,"SIDNEY 1 SSE, IA US",0.9938,COOP:137669,METERS,-95.643
223.1,1931-01-01,2015-11-01,41.3371,"SIGOURNEY, IA US",0.9961,COOP:137678,METERS,-92.2279
414.5,1931-01-01,2015-11-01,43.0558,"SIOUX CENTER 2 SE, IA US",0.95,COOP:137700,METERS,-96.1525
333.8,1948-08-01,2015-11-01,42.3913,"SIOUX CITY AIRPORT, IA US",1,COOP:137708,METERS,-96.3791
365.8,1946-03-01,2004-11-01,42.5355,"SIOUX CITY PERRY CRK, IA US",0.9801,COOP:137713,METERS,-96.4108
432.8,1941-07-01,2015-11-01,42.893,"SIOUX RAPIDS 4 E, IA US",0.9832,COOP:137726,METERS,-95.0652
342.9,1948-08-01,2014-01-01,41.9811,"SOLDIER, IA US",0.0319,COOP:137774,METERS,-95.7769
404.2,1931-01-01,2015-11-01,43.1652,"SPENCER 1 N, IA US",0.9902,COOP:137844,METERS,-95.1466
329.2,1948-08-01,2007-06-01,43.2052,"SPILLVILLE, IA US",0.0388,COOP:137855,METERS,-91.9535
432.8,1998-01-01,2015-11-01,43.423,"SPIRIT LAKE, IA US",0.9909,COOP:137859,METERS,-95.1394
339.5,2006-07-01,2015-11-01,42.6333,"STANLEY, IA US",0.9998,COOP:137892,METERS,-91.8632
297.2,1978-05-01,2012-12-01,42.4081,"STEAMBOAT ROCK, IA US",0.971,COOP:137932,METERS,-93.073
439.5,1931-01-01,2015-11-01,42.6469,"STORM LAKE, IA US",0.9932,COOP:137979,METERS,-95.1933
297.2,1971-01-01,2012-09-01,42.1791,"STORY CITY, IA US",0.0245,COOP:137985,METERS,-93.5816
365.8,1948-08-01,2015-11-01,42.6853,"STRAWBERRY POINT, IA US",0.254,COOP:138009,METERS,-91.533
359.7,1954-11-01,2015-11-01,43.45413,"SWEA CITY 5 N, IA US",0.9564,COOP:138026,METERS,-94.30699
240.8,1998-04-01,2015-11-01,41.8497,"SWISHER, IA US",0.9811,COOP:138062,METERS,-91.6765
249.9,1931-01-01,2010-05-01,41.7797,"TIPTON, IA US",0.9266,COOP:138266,METERS,-91.1269
356.6,1949-12-01,2009-01-01,43.2352,"TITONKA, IA US",0.9999,COOP:138270,METERS,-94.0416
285,1931-01-01,2015-11-01,42.03543,"TOLEDO 3 N, IA US",0.9961,COOP:138296,METERS,-92.58046
285,1948-08-01,2015-11-01,42.1865,"TRAER, IA US",0.052,COOP:138315,METERS,-92.4722
321.6,1946-09-01,2015-11-01,42.8125,"TRIPOLI, IA US",0.9495,COOP:138339,METERS,-92.2574
329.2,2002-12-01,2015-11-01,41.3894,"UNDERWOOD, IA US",1,COOP:138410,METERS,-95.6811
335.3,2010-05-01,2010-12-01,40.93417,"VILLISCA, IA US",0.9939,COOP:138540,METERS,-94.97944
259.1,1941-11-01,2015-11-01,42.1702,"VINTON, IA US",0.982,COOP:138568,METERS,-92.0077
240.8,1978-05-01,2011-12-01,41.8624,"WALFORD 2 SE, IA US",0.9999,COOP:138632,METERS,-91.8024
388.6,1948-08-01,2014-01-01,41.0458,"WALLIN 1 NW, IA US",0.026,COOP:138646,METERS,-95.0869
176.8,1932-04-01,2014-12-01,41.1805,"WAPELLO, IA US",0.9436,COOP:138668,METERS,-91.1898
209.4,1931-01-01,2015-11-01,41.2824,"WASHINGTON, IA US",0.9981,COOP:138688,METERS,-91.7078
258.5,1997-10-01,2004-12-01,42.50056,"WATERLOO NUMBER 1, IA US",0.9996,COOP:138705,METERS,-92.33194
264.6,1950-03-01,2015-11-01,42.5544,"WATERLOO MUNICIPAL AIRPORT, IA US",0.9974,COOP:138706,METERS,-92.4011
340.8,1954-12-01,2015-11-01,43.0603,"WAUCOMA 1 WNW, IA US",0.9358,COOP:138742,METERS,-92.0489
388.6,1934-10-01,2013-12-01,43.2741,"WAUKON, IA US",0.96,COOP:138755,METERS,-91.4711
326.7,1931-01-01,2015-11-01,42.4685,"WEBSTER CITY, IA US",0.999,COOP:138806,METERS,-93.7974
355.1,2002-10-01,2005-10-01,42.9787,"WEST UNION 3 SE, IA US",0.8372,COOP:138867,METERS,-91.7888
362.7,1978-05-01,2006-12-01,42.4875,"WILLIAMS, IA US",0.9708,COOP:139062,METERS,-93.5413
237.7,1931-01-01,2015-11-01,41.6649,"WILLIAMSBURG 1 E, IA US",0.9686,COOP:139067,METERS,-91.9977
335.3,1931-01-01,2015-11-01,41.3149,"WINTERSET 1 S, IA US",0.9529,COOP:139132,METERS,-94.0184
332.2,1948-08-01,2012-07-01,41.745,"WOODBINE, IA US",0.0254,COOP:139164,METERS,-95.7091
335.9,1978-05-01,2015-11-01,42.1669,"ZEARING, IA US",0.9733,COOP:139750,METERS,-93.3097
192.9,1936-11-01,2015-11-01,43.2118,"LYNXVILLE DAM 9, WI US",0.9906,COOP:474937,METERS,-91.0985
383.4,1998-06-17,2019-10-10,43.2673,"WAUKON 0.5 ESE, IA US",0.067,GHCND:US1IAAL0004,METERS,-91.4669
310,2007-08-01,2012-10-23,40.7247,"CENTERVILLE 0.5 SE, IA US",1,GHCND:US1IAAP0001,METERS,-92.868
282.9,2007-08-01,2011-12-12,40.7106,"CENTERVILLE 3.0 ESE, IA US",0.4337,GHCND:US1IAAP0002,METERS,-92.823
298.1,2007-08-01,2019-10-11,40.7368,"CENTERVILLE 0.7 NW, IA US",1,GHCND:US1IAAP0004,METERS,-92.8852
264.9,2007-08-01,2018-11-29,42.3948,"QUASQUETON 0.5 W, IA US",0.9998,GHCND:US1IABC0002,METERS,-91.7654
286.8,2008-04-01,2010-11-29,42.4725,"INDEPENDENCE 0.3 NNE, IA US",0.9947,GHCND:US1IABC0003,METERS,-91.8877
294.1,2007-08-01,2019-10-10,42.5232,"CEDAR FALLS 0.4 WNW, IA US",0.998,GHCND:US1IABH0003,METERS,-92.4596
278,2007-08-01,2019-10-11,42.465,"WATERLOO 1.9 SSE, IA US",0.9998,GHCND:US1IABH0006,METERS,-92.341
271,2007-09-01,2019-10-10,42.5019,"CEDAR FALLS 1.4 SSE, IA US",1,GHCND:US1IABH0007,METERS,-92.4418
263,2007-08-01,2017-07-20,42.5312,"WATERLOO 3.0 NNW, IA US",0.9991,GHCND:US1IABH0008,METERS,-92.3755
276.1,2007-08-01,2009-05-01,42.46,"WATERLOO 2.2 S, IA US",0.5906,GHCND:US1IABH0009,METERS,-92.35
278.9,2007-10-01,2019-10-06,42.5295,"CEDAR FALLS 0.6 N, IA US",0.2174,GHCND:US1IABH0010,METERS,-92.4536
338,2007-07-01,2009-04-29,42.0224,"BOONE 5.7 ESE, IA US",0.998,GHCND:US1IABN0001,METERS,-93.776
328,2002-06-01,2019-10-10,42.02,"OGDEN 1.6 SE, IA US",1,GHCND:US1IABN0003,METERS,-94.01
326.1,2007-08-01,2018-12-30,42.0913,"BOONE 4.5 NW, IA US",0.971,GHCND:US1IABN0005,METERS,-93.9498
303.9,2007-08-01,2018-08-06,41.872,"MADRID 0.4 SE, IA US",0.9229,GHCND:US1IABN0009,METERS,-93.813
249.9,2007-08-01,2011-06-09,41.9033,"NORWAY 0.4 W, IA US",0.9973,GHCND:US1IABT0001,METERS,-91.9301
263,2007-08-01,2008-04-28,41.9902,"ATKINS 0.5 SSE, IA US",1,GHCND:US1IABT0004,METERS,-91.8549
314.6,2007-08-01,2009-12-04,42.9063,"CLARKSVILLE 8.5 NNE, IA US",0.9985,GHCND:US1IABU0001,METERS,-92.6428
218.5,1998-06-17,2018-11-14,41.598,"DURANT 0.2 S, IA US",0.026,GHCND:US1IACD0005,METERS,-90.9097
451.1,2007-08-01,2019-10-11,42.1655,"SCHLESWIG 0.4 NE, IA US",0.9998,GHCND:US1IACF0002,METERS,-95.4287
422.8,2010-04-01,2019-10-10,41.9774,"DENISON 5.1 ESE, IA US",0.9986,GHCND:US1IACF0005,METERS,-95.2664
341.4,2009-06-01,2018-10-23,43.152,"MASON CITY 1.3 W, IA US",0.9999,GHCND:US1IACG0004,METERS,-93.2243
429.2,2007-09-01,2019-10-10,42.8747,"CLEGHORN 4.4 N, IA US",0.9903,GHCND:US1IACK0001,METERS,-95.7182
377.6,2008-03-01,2013-10-19,42.742,"CHEROKEE 1.1 SSE, IA US",0.8934,GHCND:US1IACK0002,METERS,-95.5485
346.9,2007-09-01,2019-10-10,41.0167,"OSCEOLA 2.5 WSW, IA US",0.9709,GHCND:US1IACL0002,METERS,-93.8175
371.6,2010-04-01,2019-10-11,41.0483,"MURRAY 0.5 N, IA US",0.8586,GHCND:US1IACL0003,METERS,-93.9496
213.1,2007-08-01,2018-03-11,41.8292,"DE WITT 1.4 WNW, IA US",0.4943,GHCND:US1IACN0001,METERS,-90.5731
218.8,2007-09-01,2019-10-11,41.8436,"CALAMUS 2.0 NE, IA US",1,GHCND:US1IACN0002,METERS,-90.7275
181.7,2008-07-01,2019-10-11,41.8001,"CAMANCHE 1.2 W, IA US",0.9354,GHCND:US1IACN0005,METERS,-90.2751
200.3,2009-04-01,2010-03-10,41.8328,"CLINTON 0.9 WSW, IA US",0.9925,GHCND:US1IACN0007,METERS,-90.2069
246.9,2010-07-01,2019-06-03,42.0237,"DELMAR 2.3 NW, IA US",0.9562,GHCND:US1IACN0008,METERS,-90.6399
420.9,2007-08-01,2008-09-11,41.9065,"MANNING 0.9 WSW, IA US",0.8554,GHCND:US1IACR0002,METERS,-95.0812
384,2007-09-01,2012-07-09,42.0539,"CARROLL 1.1 SSW, IA US",0.6898,GHCND:US1IACR0003,METERS,-94.872
452,2008-03-01,2014-11-21,41.9024,"MANNING 3.3 E, IA US",0.9998,GHCND:US1IACR0005,METERS,-95.0006
396.8,2007-08-01,2009-10-10,41.39,"ATLANTIC 0.7 SE, IA US",0.7027,GHCND:US1IACS0001,METERS,-95.0061
413.9,2007-08-01,2019-04-04,41.4211,"ANITA 2.8 ESE, IA US",0.9902,GHCND:US1IACS0002,METERS,-94.7199
349.9,2007-08-01,2019-10-10,41.4211,"ATLANTIC 2.2 NW, IA US",0.881,GHCND:US1IACS0004,METERS,-95.0448
410,2007-06-01,2019-10-11,41.4943,"ATLANTIC 7.1 NNE, IA US",0.9904,GHCND:US1IACS0005,METERS,-94.965
332.8,2007-08-01,2012-12-15,43.0358,"NEW HAMPTON 1.7 S, IA US",0.9838,GHCND:US1IACW0001,METERS,-92.318
350.5,2009-11-01,2019-10-11,43.0553,"NEW HAMPTON 0.4 SW, IA US",1,GHCND:US1IACW0002,METERS,-92.3204
413,2007-08-01,2018-08-15,43.1584,"EVERLY 0.3 WSW, IA US",0.7595,GHCND:US1IACY0002,METERS,-95.3261
401.1,2008-02-01,2011-07-11,43.1521,"SPENCER 0.6 NE, IA US",0.9925,GHCND:US1IACY0003,METERS,-95.1438
200.9,2007-08-01,2008-07-19,42.5045,"DUBUQUE 1.0 E, IA US",0.998,GHCND:US1IADB0002,METERS,-90.6707
245.4,1998-06-17,2019-10-10,42.4981,"DUBUQUE 1.4 WSW, IA US",0.0801,GHCND:US1IADB0019,METERS,-90.7164
328,2007-08-01,2010-05-11,40.6597,"LEON 5.8 SSW, IA US",0.4411,GHCND:US1IADC0001,METERS,-93.7822
431,2007-08-01,2008-05-12,43.2727,"TERRIL 2.6 SSE, IA US",0.9947,GHCND:US1IADK0002,METERS,-94.9536
438.9,2008-10-01,2019-10-11,43.403,"LAKE PARK 3.2 SSE, IA US",0.8334,GHCND:US1IADK0003,METERS,-95.3079
436.5,2010-04-01,2012-06-02,43.3252,"MILFORD 0.5 WSW, IA US",0.998,GHCND:US1IADK0004,METERS,-95.1605
447.1,1998-06-01,2019-10-11,43.4516,"LAKE PARK 0.2 N, IA US",0.357,GHCND:US1IADK0006,METERS,-95.3251
287.1,2007-08-01,2016-09-18,41.7168,"DALLAS CENTER 4.6 ENE, IA US",0.9998,GHCND:US1IADL0001,METERS,-93.9055
281,2007-08-01,2014-09-20,41.6884,"DALLAS CENTER 0.9 ENE, IA US",0.2674,GHCND:US1IADL0004,METERS,-93.9675
285,2007-08-01,2016-05-24,41.6023,"WAUKEE 0.9 WSW, IA US",0.4123,GHCND:US1IADL0005,METERS,-93.879
293.5,2007-09-01,2010-08-11,41.7642,"MINBURN 3.0 E, IA US",0.9819,GHCND:US1IADL0013,METERS,-93.97
317,2007-09-01,2015-08-28,41.7032,"LINDEN 4.0 N, IA US",0.7708,GHCND:US1IADL0014,METERS,-94.2715
301.8,1998-06-17,2019-10-11,41.7392,"DALLAS CENTER 3.9 NNE, IA US",0.7856,GHCND:US1IADL0017,METERS,-93.9635
189,2007-10-01,2012-04-15,40.9008,"BURLINGTON 6.5 N, IA US",0.9223,GHCND:US1IADM0001,METERS,-91.1458
213.1,2007-10-01,2008-09-17,40.8262,"WEST BURLINGTON 0.8 ENE, IA US",0.998,GHCND:US1IADM0002,METERS,-91.1629
208.5,2007-06-01,2009-10-16,40.8394,"BURLINGTON 2.1 N, IA US",0.9131,GHCND:US1IADM0003,METERS,-91.1279
212.1,2008-10-01,2014-07-02,40.8261,"WEST BURLINGTON 0.8 ENE, IA US",0.543,GHCND:US1IADM0004,METERS,-91.1629
169.5,2010-03-01,2019-10-11,40.7296,"BURLINGTON 6.5 SSW, IA US",0.9995,GHCND:US1IADM0007,METERS,-91.1897
285.9,1998-06-17,2019-10-08,40.6746,"BLOOMFIELD 9.3 WSW, IA US",0.0339,GHCND:US1IADV0015,METERS,-92.5674
292,2007-08-01,2008-11-29,42.4946,"MANCHESTER 0.7 NNE, IA US",0.998,GHCND:US1IADW0002,METERS,-91.4515
395,2007-09-01,2018-05-15,43.3204,"WALLINGFORD 5.2 E, IA US",0.3204,GHCND:US1IAEM0001,METERS,-94.689
374,2007-08-01,2017-11-18,42.7846,"LATIMER 1.9 NE, IA US",1,GHCND:US1IAFR0001,METERS,-93.3402
357.8,2007-08-01,2009-08-21,42.9613,"WEST UNION 0.2 NE, IA US",0.9986,GHCND:US1IAFY0001,METERS,-91.8102
312.1,2008-03-01,2018-03-23,42.6785,"OELWEIN 0.8 WNW, IA US",0.9998,GHCND:US1IAFY0002,METERS,-91.9289
313.3,2008-06-01,2019-10-11,43.0087,"WAUCOMA 3.2 S, IA US",1,GHCND:US1IAFY0003,METERS,-92.0271
337.1,2007-08-31,2015-04-20,42.1807,"CHURDAN 1.9 NNE, IA US",0.9678,GHCND:US1IAGN0001,METERS,-94.4668
321,2007-09-01,2008-11-04,42.0172,"JEFFERSON 0.2 WSW, IA US",0.4662,GHCND:US1IAGN0002,METERS,-94.3801
341.1,2008-04-01,2019-10-11,42.1397,"CHURDAN 1.0 S, IA US",0.7741,GHCND:US1IAGN0004,METERS,-94.4747
321,2007-07-01,2019-10-09,41.7991,"JAMAICA 3.2 S, IA US",1,GHCND:US1IAGT0001,METERS,-94.3093
440.1,2007-02-01,2010-11-13,41.562,"ADAIR 4.3 N, IA US",0.7397,GHCND:US1IAGT0002,METERS,-94.6428
335,2007-08-01,2018-02-01,41.8458,"BAGLEY 0.1 W, IA US",0.9998,GHCND:US1IAGT0003,METERS,-94.431
356,2007-09-01,2008-02-23,42.5144,"ALDEN 0.1 NNE, IA US",1,GHCND:US1IAHD0002,METERS,-93.3783
323.1,2007-08-01,2019-10-08,42.4675,"WEBSTER CITY 0.5 NW, IA US",0.9998,GHCND:US1IAHM0001,METERS,-93.824
370,2007-09-01,2018-02-02,43.107,"BRITT 0.7 N, IA US",1,GHCND:US1IAHN0002,METERS,-93.8036
310.9,2007-08-05,2013-02-26,41.8275,"LITTLE SIOUX 1.6 NW, IA US",1,GHCND:US1IAHR0001,METERS,-96.0445
438.9,2008-04-01,2019-01-07,41.8413,"WOODBINE 7.9 NNW, IA US",0.7083,GHCND:US1IAHR0002,METERS,-95.7684
378.6,2008-04-03,2018-09-28,41.6654,"LOGAN 1.5 NNW, IA US",0.9998,GHCND:US1IAHR0003,METERS,-95.7979
363.3,2008-05-01,2019-10-11,41.5495,"PERSIA 2.0 S, IA US",0.9893,GHCND:US1IAHR0004,METERS,-95.5722
404.8,2008-06-01,2009-10-31,41.7138,"LOGAN 6.5 NW, IA US",0.8814,GHCND:US1IAHR0005,METERS,-95.876
348.4,2009-05-01,2014-01-08,41.7626,"WOODBINE 3.7 ENE, IA US",0.9925,GHCND:US1IAHR0006,METERS,-95.6442
310.9,1998-06-17,2019-10-10,41.6858,"MONDAMIN 1.7 SSW, IA US",0.9999,GHCND:US1IAHR0007,METERS,-96.0312
316.1,1998-06-17,2019-10-10,41.8521,"BLENCOE 5.4 S, IA US",0.0351,GHCND:US1IAHR0014,METERS,-96.0991
224.9,2007-09-01,2019-10-11,40.9142,"NEW LONDON 1.5 SW, IA US",1,GHCND:US1IAHY0001,METERS,-91.4293
209.4,2007-10-01,2010-10-08,40.9153,"MOUNT PLEASANT 3.4 SSW, IA US",1,GHCND:US1IAHY0002,METERS,-91.5638
257.6,2009-01-01,2013-08-12,41.5866,"WILLIAMSBURG 6.2 SW, IA US",0.7145,GHCND:US1IAIA0001,METERS,-92.0551
246.9,1998-06-17,2019-10-10,41.7621,"MARENGO 2.6 SSW, IA US",0.9174,GHCND:US1IAIA0002,METERS,-92.0847
253,2007-09-01,2009-08-10,42.0857,"SABULA 4.4 WNW, IA US",0.9993,GHCND:US1IAJC0001,METERS,-90.2569
246,2007-08-01,2014-03-13,42.0815,"MONMOUTH 0.5 NNE, IA US",0.3758,GHCND:US1IAJC0002,METERS,-90.8795
230.1,2007-09-01,2010-12-19,42.0785,"MONMOUTH 0.3 N, IA US",0.9992,GHCND:US1IAJC0004,METERS,-90.8817
193.2,2009-07-01,2019-09-15,42.255,"BELLEVUE 0.3 SSW, IA US",0.5431,GHCND:US1IAJC0005,METERS,-90.4311
245.1,2007-08-01,2019-10-11,41.804,"SOLON 0.3 ESE, IA US",0.9998,GHCND:US1IAJH0001,METERS,-91.4891
237.1,2007-09-01,2008-07-03,41.6728,"IOWA CITY 1.1 NNE, IA US",0.7546,GHCND:US1IAJH0006,METERS,-91.5248
276.1,2007-08-01,2011-09-30,42.0763,"ANAMOSA 2.5 SSW, IA US",0.9999,GHCND:US1IAJN0004,METERS,-91.3019
264.9,2007-08-01,2008-10-19,41.5384,"REASNOR 4.9 SE, IA US",0.8639,GHCND:US1IAJS0002,METERS,-92.9439
292.3,2007-08-01,2019-10-10,41.7026,"KELLOGG 2.1 WSW, IA US",0.9702,GHCND:US1IAJS0004,METERS,-92.9444
246.9,2007-08-01,2008-02-26,41.4087,"WHAT CHEER 3.3 E, IA US",1,GHCND:US1IAKK0001,METERS,-92.2916
362.4,1998-06-17,2019-10-11,43.2055,"BURT 0.5 NW, IA US",0.0638,GHCND:US1IAKS0005,METERS,-94.2274
168.9,2008-03-01,2015-04-19,40.5886,"MONTROSE 4.5 NNW, IA US",0.1628,GHCND:US1IALE0003,METERS,-91.4357
207.3,2008-03-01,2013-01-30,40.5176,"MONTROSE 3.7 W, IA US",0.7956,GHCND:US1IALE0004,METERS,-91.4857
231,2007-08-01,2019-10-11,41.8705,"ELY 0.5 SE, IA US",0.9998,GHCND:US1IALN0003,METERS,-91.5807
239.9,2007-08-01,2019-01-09,42.0125,"CEDAR RAPIDS 3.4 NW, IA US",0.9998,GHCND:US1IALN0004,METERS,-91.7099
245.7,2007-08-01,2019-08-09,41.9864,"CEDAR RAPIDS 2.1 ENE, IA US",0.9999,GHCND:US1IALN0005,METERS,-91.6339
287.1,2007-08-01,2019-10-11,42.1983,"CENTRAL CITY 6.7 W, IA US",0.9998,GHCND:US1IALN0007,METERS,-91.6543
262.1,2007-08-01,2017-12-26,42.0478,"MARION 1.2 NE, IA US",0.9998,GHCND:US1IALN0009,METERS,-91.5743
257.9,2007-11-01,2013-12-06,41.977,"CEDAR RAPIDS 3.2 E, IA US",0.8376,GHCND:US1IALN0013,METERS,-91.6079
281.3,2009-05-01,2011-10-14,42.0751,"ROBINS 0.6 WSW, IA US",0.666,GHCND:US1IALN0015,METERS,-91.6803
253,2010-09-01,2012-01-04,42.058,"SPRINGVILLE 0.2 NNW, IA US",0.9989,GHCND:US1IALN0017,METERS,-91.4453
252.1,2007-08-01,2013-05-20,41.392,"PELLA 1.4 SW, IA US",0.2999,GHCND:US1IAMA0002,METERS,-92.9355
256.9,2008-01-01,2014-04-14,41.4029,"PELLA 0.7 SE, IA US",0.8426,GHCND:US1IAMA0004,METERS,-92.9075
256,2008-02-01,2015-08-31,41.4223,"PELLA 0.9 N, IA US",0.8684,GHCND:US1IAMA0005,METERS,-92.9196
351.1,2007-12-01,2009-03-27,41.3408,"WINTERSET 0.3 NW, IA US",1,GHCND:US1IAMD0002,METERS,-94.0229
338.9,1998-06-17,2019-10-11,41.4964,"EARLHAM 2.0 W, IA US",0.2558,GHCND:US1IAMD0003,METERS,-94.1599
240.2,2008-07-01,2011-08-20,41.274,"OSKALOOSA 1.4 SSW, IA US",0.6577,GHCND:US1IAMH0004,METERS,-92.6504
248.7,2002-10-22,2017-10-29,41.3719,"ROSE HILL 4.0 NNW, IA US",0.3527,GHCND:US1IAMH0006,METERS,-92.4975
271,2007-08-01,2017-08-14,42.0435,"MARSHALLTOWN 1.4 ENE, IA US",0.9999,GHCND:US1IAMS0002,METERS,-92.8861
330.1,2007-08-01,2008-06-25,42.017,"STATE CENTER 0.3 WNW, IA US",1,GHCND:US1IAMS0004,METERS,-93.1702
474.9,2007-08-01,2008-10-07,43.4473,"HARRIS 0.1 NNE, IA US",0.9969,GHCND:US1IAOS0001,METERS,-95.4328
363.3,2007-08-01,2008-09-13,42.9561,"WEST BEND 0.3 S, IA US",0.7841,GHCND:US1IAPA0002,METERS,-94.4477
437.1,2007-08-01,2013-11-06,43.1273,"RUTHVEN 0.2 SW, IA US",0.9991,GHCND:US1IAPA0003,METERS,-94.9015
402,2010-07-01,2010-11-14,42.8495,"LAURENS 0.3 WNW, IA US",0.9947,GHCND:US1IAPC0003,METERS,-94.8527
263,2007-07-01,2015-05-19,41.6092,"WINDSOR HEIGHTS 0.3 NNE, IA US",1,GHCND:US1IAPK0001,METERS,-93.7102
284.1,2008-01-01,2015-11-12,41.6917,"ANKENY 2.8 SW, IA US",0.2106,GHCND:US1IAPK0002,METERS,-93.6368
260.9,2006-05-01,2019-10-11,41.6066,"DES MOINES 4.5 WNW, IA US",0.9406,GHCND:US1IAPK0003,METERS,-93.6956
257.9,2007-10-01,2012-11-12,41.6161,"DES MOINES 3.9 NW, IA US",0.7577,GHCND:US1IAPK0008,METERS,-93.6708
285.9,2002-04-01,2010-08-25,41.7161,"GRIMES 3.8 N, IA US",0.7717,GHCND:US1IAPK0012,METERS,-93.7898
288,2007-08-01,2017-03-07,41.6467,"ALTOONA 0.6 WSW, IA US",0.9819,GHCND:US1IAPK0013,METERS,-93.4855
303.6,2007-08-01,2019-10-11,41.7321,"ANKENY 2.3 WNW, IA US",0.9998,GHCND:US1IAPK0014,METERS,-93.6498
280.1,2007-09-01,2009-11-24,41.5482,"DES MOINES 2.1 SSE, IA US",0.7406,GHCND:US1IAPK0017,METERS,-93.6036
292.3,2008-01-01,2019-10-11,41.7366,"JOHNSTON 3.7 NNW, IA US",1,GHCND:US1IAPK0021,METERS,-93.7236
287.1,2007-08-01,2008-08-27,41.548,"DES MOINES 2.3 SSE, IA US",0.69,GHCND:US1IAPK0022,METERS,-93.594
273.1,2009-08-19,2019-08-18,41.5816,"WEST DES MOINES 0.8 NNW, IA US",0.0578,GHCND:US1IAPK0023,METERS,-93.7571
288.6,2007-08-01,2008-05-01,41.6265,"URBANDALE 1.9 ESE, IA US",0.998,GHCND:US1IAPK0025,METERS,-93.7066
262.1,2007-08-01,2008-10-07,41.6148,"WINDSOR HEIGHTS 0.8 NE, IA US",0.9969,GHCND:US1IAPK0026,METERS,-93.7029
274,2007-08-01,2012-10-22,41.6035,"CLIVE 0.6 ESE, IA US",0.9993,GHCND:US1IAPK0027,METERS,-93.7599
278,2007-08-01,2011-08-17,41.6749,"JOHNSTON 2.6 WSW, IA US",0.9996,GHCND:US1IAPK0028,METERS,-93.7508
273.1,2007-08-01,2010-09-01,41.5316,"DES MOINES 3.1 S, IA US",0.4209,GHCND:US1IAPK0030,METERS,-93.6091
278,2007-08-01,2015-09-29,41.567,"WEST DES MOINES 1.4 W, IA US",0.998,GHCND:US1IAPK0033,METERS,-93.7798
256,2007-09-01,2010-10-01,41.6097,"DES MOINES 2.4 NNE, IA US",0.8658,GHCND:US1IAPK0034,METERS,-93.6035
296.6,2007-08-01,2019-10-10,41.7833,"MADRID 6.4 S, IA US",0.9992,GHCND:US1IAPK0036,METERS,-93.7999
263,2007-08-01,2019-10-11,41.5981,"WINDSOR HEIGHTS 0.8 SE, IA US",0.5008,GHCND:US1IAPK0037,METERS,-93.6995
288,2007-08-01,2008-09-24,41.5303,"DES MOINES 3.3 SSW, IA US",0.998,GHCND:US1IAPK0042,METERS,-93.6312
270.1,2007-08-01,2009-12-07,41.6559,"URBANDALE 1.9 NE, IA US",0.9998,GHCND:US1IAPK0045,METERS,-93.7135
294.4,2008-06-01,2019-09-08,41.7739,"POLK CITY 0.4 W, IA US",0.7022,GHCND:US1IAPK0054,METERS,-93.7247
296,2008-08-01,2015-10-22,41.6738,"GRIMES 0.9 N, IA US",1,GHCND:US1IAPK0057,METERS,-93.7886
294.7,2010-03-01,2010-10-11,41.7384,"ANKENY 1.2 NW, IA US",0.9939,GHCND:US1IAPK0062,METERS,-93.6212
261.5,2010-03-01,2014-09-10,41.6484,"DES MOINES 5.4 NW, IA US",0.8177,GHCND:US1IAPK0063,METERS,-93.6906
280.7,2010-09-01,2015-06-25,41.576,"WEST DES MOINES 1.5 WNW, IA US",0.5176,GHCND:US1IAPK0065,METERS,-93.7818
257.9,2009-12-01,2019-10-11,41.6061,"CLIVE 1.2 E, IA US",0.9905,GHCND:US1IAPK0068,METERS,-93.7462
388.9,2007-08-01,2010-06-21,42.8078,"BRUNSVILLE 0.3 SSW, IA US",0.5716,GHCND:US1IAPL0001,METERS,-96.2692
362.1,2007-08-01,2019-10-11,41.2853,"COUNCIL BLUFFS 3.4 NNE, IA US",0.9998,GHCND:US1IAPT0002,METERS,-95.8336
337.1,2007-08-01,2008-04-11,41.2661,"COUNCIL BLUFFS 2.1 NNE, IA US",1,GHCND:US1IAPT0005,METERS,-95.837
352,2007-09-01,2009-09-03,41.2651,"COUNCIL BLUFFS 2.8 NE, IA US",0.7199,GHCND:US1IAPT0006,METERS,-95.8173
345,2007-08-01,2019-10-11,41.2425,"COUNCIL BLUFFS 3.6 E, IA US",0.9325,GHCND:US1IAPT0007,METERS,-95.7907
310,2007-08-01,2013-10-04,41.8051,"GRINNELL 4.8 NNW, IA US",0.5864,GHCND:US1IAPW0001,METERS,-92.7578
310,2007-08-01,2009-09-25,41.7553,"GRINNELL 1.1 NNW, IA US",0.4996,GHCND:US1IAPW0002,METERS,-92.7298
308.8,2010-08-01,2019-10-11,41.7465,"GRINNELL 0.6 NW, IA US",0.7229,GHCND:US1IAPW0004,METERS,-92.731
412.1,2007-10-01,2018-03-17,42.3123,"ODEBOLT 4.8 E, IA US",0.9215,GHCND:US1IASC0002,METERS,-95.1602
370,2008-08-01,2015-09-25,41.6444,"HARLAN 0.4 SE, IA US",0.9537,GHCND:US1IASH0001,METERS,-95.3211
298.1,2007-08-01,2019-10-10,42.0448,"AMES 1.5 NNE, IA US",1,GHCND:US1IASR0002,METERS,-93.6174
289.9,2007-08-01,2019-10-02,42.0604,"AMES 2.6 NNW, IA US",0.9998,GHCND:US1IASR0005,METERS,-93.6371
306,2007-08-01,2019-10-11,42.1038,"GILBERT 0.3 SE, IA US",0.7883,GHCND:US1IASR0008,METERS,-93.6434
306.9,2007-09-01,2015-08-29,42.0143,"NEVADA 0.3 SSE, IA US",0.9967,GHCND:US1IASR0010,METERS,-93.4488
292.9,2007-08-01,2019-10-09,42.0544,"AMES 2.1 N, IA US",0.9902,GHCND:US1IASR0012,METERS,-93.6267
305.1,2007-08-01,2016-08-27,42.0274,"NEVADA 0.8 NW, IA US",0.9998,GHCND:US1IASR0013,METERS,-93.4589
289,2007-08-01,2012-06-21,41.9794,"NEVADA 5.1 WSW, IA US",0.6609,GHCND:US1IASR0014,METERS,-93.5343
282.9,2007-08-01,2019-10-11,42.0289,"AMES 0.9 ENE, IA US",0.9998,GHCND:US1IASR0017,METERS,-93.6095
302.1,2007-08-01,2019-10-11,42.1079,"GILBERT 0.2 W, IA US",0.9998,GHCND:US1IASR0019,METERS,-93.6511
292.9,2007-09-01,2010-09-01,42.0517,"AMES 2.0 N, IA US",0.7028,GHCND:US1IASR0021,METERS,-93.6253
292,2007-08-01,2017-09-17,42.0613,"AMES 2.7 NNW, IA US",0.48,GHCND:US1IASR0022,METERS,-93.642
210.3,2007-07-01,2019-10-11,41.6235,"LE CLAIRE 1.8 NNE, IA US",0.9997,GHCND:US1IAST0001,METERS,-90.3514
207.6,2007-07-01,2008-02-17,41.5758,"DAVENPORT 3.3 NW, IA US",0.998,GHCND:US1IAST0002,METERS,-90.6159
241.1,2007-07-01,2019-10-11,41.6885,"PARK VIEW 0.2 WSW, IA US",0.9997,GHCND:US1IAST0003,METERS,-90.5438
220.1,2007-08-01,2019-10-11,41.5264,"DAVENPORT 0.9 SSW, IA US",1,GHCND:US1IAST0004,METERS,-90.5858
221,2007-08-01,2009-04-30,41.5975,"LE CLAIRE 0.2 ESE, IA US",0.8098,GHCND:US1IAST0006,METERS,-90.3613
182.9,2007-08-01,2019-10-11,41.5401,"BETTENDORF 2.2 SE, IA US",1,GHCND:US1IAST0008,METERS,-90.4492
220.1,2007-08-01,2010-10-07,41.5324,"DAVENPORT 0.6 SW, IA US",1,GHCND:US1IAST0009,METERS,-90.5845
196,2007-09-01,2009-08-26,41.5481,"DAVENPORT 1.9 ENE, IA US",0.9819,GHCND:US1IAST0010,METERS,-90.543
214.9,2007-09-01,2010-11-17,41.5785,"BETTENDORF 1.5 NW, IA US",1,GHCND:US1IAST0011,METERS,-90.499
175,2007-10-01,2009-02-02,41.5078,"DAVENPORT 3.2 SW, IA US",1,GHCND:US1IAST0012,METERS,-90.6224
238,2009-04-01,2019-10-06,41.6459,"ELDRIDGE 0.6 S, IA US",0.7023,GHCND:US1IAST0021,METERS,-90.5852
241.1,2010-07-01,2013-08-23,41.6965,"ELDRIDGE 3.5 NE, IA US",0.7885,GHCND:US1IAST0022,METERS,-90.5449
434,2009-04-01,2009-12-08,43.127,"SIOUX CENTER 3.6 NNE, IA US",0.9961,GHCND:US1IASX0002,METERS,-96.1567
346.9,2007-09-01,2016-03-24,40.6623,"BEDFORD 0.6 S, IA US",0.699,GHCND:US1IATY0001,METERS,-94.7264
358.4,2008-04-01,2019-10-11,40.8006,"NEW MARKET 4.7 N, IA US",1,GHCND:US1IATY0002,METERS,-94.9102
396.8,2007-08-01,2019-10-11,41.0654,"CRESTON 0.7 NE, IA US",0.9998,GHCND:US1IAUN0001,METERS,-94.3545
201.5,2010-05-01,2019-10-02,40.6308,"FARMINGTON 3.5 W, IA US",0.8833,GHCND:US1IAVB0003,METERS,-91.8051
348.1,2007-07-01,2010-11-08,42.2788,"GOWRIE 0.4 WNW, IA US",0.6336,GHCND:US1IAWB0001,METERS,-94.2953
340.2,2007-08-01,2019-10-11,42.5193,"FORT DODGE 1.6 ENE, IA US",0.9998,GHCND:US1IAWB0003,METERS,-94.1504
338,2007-08-01,2019-10-11,42.6426,"BADGER 3.1 NW, IA US",1,GHCND:US1IAWB0005,METERS,-94.1879
345,2007-08-01,2010-01-08,42.282,"DAYTON 2.4 NW, IA US",0.9991,GHCND:US1IAWB0006,METERS,-94.11
337.4,2008-07-01,2009-02-13,42.4951,"FORT DODGE 1.2 SE, IA US",0.998,GHCND:US1IAWB0009,METERS,-94.1598
391.4,2009-03-01,2013-09-27,42.5108,"SIOUX CITY 0.7 NW, IA US",0.3634,GHCND:US1IAWD0007,METERS,-96.4061
289,2007-08-01,2019-10-11,43.3439,"DECORAH 7.9 ENE, IA US",0.9998,GHCND:US1IAWH0001,METERS,-91.6443
249.9,2007-08-01,2009-01-10,41.3286,"INDIANOLA 2.4 SSE, IA US",0.9961,GHCND:US1IAWR0001,METERS,-93.5503
277.1,2007-08-01,2008-06-27,41.502,"DES MOINES 5.2 S, IA US",0.7485,GHCND:US1IAWR0003,METERS,-93.6137
248.1,2007-08-01,2019-10-11,41.4611,"HARTFORD 1.0 ENE, IA US",0.8364,GHCND:US1IAWR0005,METERS,-93.3859
276.1,2007-08-01,2018-03-09,41.4405,"NORWALK 4.0 S, IA US",0.9902,GHCND:US1IAWR0006,METERS,-93.6883
288,2007-08-01,2019-10-10,41.3505,"INDIANOLA 0.8 SSW, IA US",0.9998,GHCND:US1IAWR0007,METERS,-93.5729
265.5,2009-07-01,2019-06-23,41.4759,"NORWALK 1.7 SSE, IA US",0.3151,GHCND:US1IAWR0015,METERS,-93.666
219.8,2007-08-01,2019-10-11,41.3964,"AINSWORTH 7.4 N, IA US",0.9998,GHCND:US1IAWS0002,METERS,-91.5411
374,2007-09-01,2019-10-10,43.3259,"GRAFTON 0.4 SE, IA US",0.4422,GHCND:US1IAWT0001,METERS,-93.0642
164,1938-01-01,2019-10-11,40.8821,"GLADSTONE DAM 18, IL US",1,GHCND:USC00113455,METERS,-91.0234
167.6,1943-06-01,2019-10-11,41.4255,"ILLINOIS CITY DAM 16, IL US",1,GHCND:USC00114355,METERS,-91.0094
173.1,1866-02-01,2019-10-11,41.518,"ROCK ISLAND LOCK AND DAM 15, IL US",1,GHCND:USC00117391,METERS,-90.5647
248.4,1959-04-01,2019-10-10,41.3372,"ACKWORTH 2 SW, IA US",0.0906,GHCND:USC00130021,METERS,-93.4863
420.6,2005-09-01,2016-03-01,41.5013,"ADAIR, IA US",0.7796,GHCND:USC00130046,METERS,-94.6355
365.2,1900-09-01,2019-10-10,42.8258,"AKRON, IA US",1,GHCND:USC00130088,METERS,-96.5514
420.6,2010-06-01,2013-01-28,42.83528,"AKRON 11 E, IA US",1,GHCND:USC00130089,METERS,-96.34333
268.2,1894-03-01,2019-10-11,41.0655,"ALBIA 3 NNE, IA US",1,GHCND:USC00130112,METERS,-92.7866
370,1893-01-01,2019-10-11,43.06626,"ALGONA, IA US",1,GHCND:USC00130133,METERS,-94.22216
332.2,1902-06-01,2019-10-10,40.70392,"ALLERTON, IA US",1,GHCND:USC00130149,METERS,-93.37027
316.4,1914-02-01,2019-10-08,42.7536,"ALLISON, IA US",1,GHCND:USC00130157,METERS,-92.8022
413,1905-05-01,2016-03-01,42.998,"ALTON, IA US",1,GHCND:USC00130181,METERS,-96.0175
335,1964-11-01,2019-10-10,42.0208,"AMES 8 WSW, IA US",1,GHCND:USC00130200,METERS,-93.7741
265.2,1978-05-01,2019-10-11,41.9519,"AMES 5 SE, IA US",1,GHCND:USC00130203,METERS,-93.5655
245.4,1937-05-01,2014-01-01,42.1117,"ANAMOSA 1 WNW, IA US",1,GHCND:USC00130213,METERS,-91.2933
297.2,1950-05-01,2019-10-11,41.73229,"ANKENY, IA US",1,GHCND:USC00130241,METERS,-93.64999
351.1,1893-01-01,2019-10-11,41.4175,"ATLANTIC 1 NE, IA US",1,GHCND:USC00130364,METERS,-95.0041
353.6,2010-05-01,2016-03-01,41.3061,"ATLANTIC 5 SW, IA US",0.901,GHCND:USC00130372,METERS,-95.0847
390.1,1893-01-01,2019-10-11,41.7069,"AUDUBON, IA US",1,GHCND:USC00130385,METERS,-94.9222
191.7,1936-12-01,2019-10-05,40.7472,"AUGUSTA, IA US",0.5551,GHCND:USC00130389,METERS,-91.275
344.4,2010-01-01,2010-11-30,42.63222,"BALLTOWN 3 W, IA US",1,GHCND:USC00130455,METERS,-90.91889
420.6,2011-01-01,2019-10-07,42.37,"BATTLE CREEK 3 NE, IA US",1,GHCND:USC00130512,METERS,-95.575
370.3,1951-05-01,2019-10-11,40.8069,"BEACONSFIELD, IA US",1,GHCND:USC00130536,METERS,-94.0474
362.7,1898-09-01,2018-09-22,40.6741,"BEDFORD, IA US",1,GHCND:USC00130576,METERS,-94.7244
338.3,2010-04-01,2016-03-01,40.6608,"BEDFORD 1 SSE, IA US",0.6526,GHCND:USC00130580,METERS,-94.7163
246.9,1893-01-01,2019-10-11,41.8814,"BELLE PLAINE, IA US",1,GHCND:USC00130600,METERS,-92.2764
183.8,1941-01-01,2019-10-11,42.2611,"BELLEVUE L AND D 12, IA US",1,GHCND:USC00130608,METERS,-90.4231
362.7,1893-01-01,2017-07-19,40.6188,"BLOCKTON 1 W, IA US",1,GHCND:USC00130745,METERS,-94.505
261.5,1906-08-01,2019-10-08,40.7392,"BLOOMFIELD, IA US",1,GHCND:USC00130753,METERS,-92.4142
315.5,1905-01-01,2019-10-11,42.0416,"BOONE, IA US",1,GHCND:USC00130807,METERS,-93.8905
225.9,1968-05-01,2019-08-31,41.17146,"BRIGHTON, IA US",1,GHCND:USC00130910,METERS,-91.82555
371.9,1897-01-01,2019-08-31,43.10554,"BRITT 3 E, IA US",1,GHCND:USC00130923,METERS,-93.74444
270.1,1976-09-01,2019-09-30,41.7394,"BROOKLYN, IA US",1,GHCND:USC00130933,METERS,-92.44
387.1,2010-06-01,2011-08-31,42.8077,"BRUNSVILLE, IA US",0.999,GHCND:USC00130940,METERS,-96.2691
350.5,1978-05-01,2010-12-31,42.4172,"BUCKEYE, IA US",1,GHCND:USC00130999,METERS,-93.3775
210.3,1964-12-01,2019-10-05,40.7747,"BURLINGTON 2 S, IA US",1,GHCND:USC00131060,METERS,-91.1165
222.5,1899-04-01,2016-03-01,41.2038,"BUSSEY 3 WNW, IA US",0.2415,GHCND:USC00131099,METERS,-92.8872
376.4,2009-02-01,2019-10-11,43.1876,"CALMAR NE, IA US",0.9075,GHCND:USC00131126,METERS,-91.862
378,1893-01-01,2019-10-11,42.065,"CARROLL, IA US",1,GHCND:USC00131233,METERS,-94.85
252.4,1947-07-01,2019-10-11,42.2973,"CASCADE, IA US",1,GHCND:USC00131257,METERS,-91.0199
426.7,1948-07-01,2017-12-31,42.0633,"CASTANA EXPERIMENTAL FARM, IA US",1,GHCND:USC00131277,METERS,-95.8363
232.6,1893-01-01,2016-03-01,42.5377,"CEDAR FALLS, IA US",0.3563,GHCND:USC00131300,METERS,-92.443
247.8,1892-01-01,2019-10-10,42.0496,"CEDAR RAPIDS NUMBER 1, IA US",1,GHCND:USC00131319,METERS,-91.5881
275.8,1893-01-01,2019-10-11,40.7324,"CENTERVILLE, IA US",1,GHCND:USC00131354,METERS,-92.8899
294.1,1895-02-01,2019-10-11,41.0163,"CHARITON 1 E, IA US",1,GHCND:USC00131394,METERS,-93.2791
302.7,1893-01-01,2019-10-11,43.0604,"CHARLES CITY, IA US",1,GHCND:USC00131402,METERS,-92.6717
368.8,1921-11-01,2019-10-11,42.7572,"CHEROKEE, IA US",1,GHCND:USC00131442,METERS,-95.5377
298.7,1893-01-01,2019-10-11,40.7244,"CLARINDA, IA US",1,GHCND:USC00131533,METERS,-95.0191
352.3,1944-09-01,2019-07-15,42.72,"CLARION, IA US",1,GHCND:USC00131541,METERS,-93.7336
256,2011-01-01,2012-06-30,42.9975,"CLERMONT, IA US",1,GHCND:USC00131610,METERS,-91.6583
178.3,1893-01-01,2019-10-10,41.7947,"CLINTON NUMBER 1, IA US",1,GHCND:USC00131635,METERS,-90.2639
266.7,1973-08-01,2019-10-11,42.08,"CLUTIER, IA US",1,GHCND:USC00131704,METERS,-92.405
275.2,2005-03-01,2019-10-09,42.2792,"COGGON, IA US",1,GHCND:USC00131705,METERS,-91.525
304.8,1964-10-01,2010-12-31,42.0169,"COLO, IA US",1,GHCND:USC00131710,METERS,-93.3188
181.4,1900-10-01,2010-12-31,41.2864,"COLUMBUS JUNCT 2 SSW, IA US",1,GHCND:USC00131731,METERS,-91.361
312.4,1978-05-01,2019-10-04,42.2244,"CONRAD, IA US",1,GHCND:USC00131742,METERS,-92.8855
355.1,1899-03-01,2019-10-10,41.8747,"COON RAPIDS, IA US",0.0932,GHCND:USC00131793,METERS,-94.6705
237.7,1983-06-01,2016-03-01,41.70861,"CORALVILLE DAM, IA US",0.1726,GHCND:USC00131828,METERS,-91.53528
362.7,1893-01-01,2019-10-11,40.98833,"CORNING, IA US",1,GHCND:USC00131833,METERS,-94.75889
338.3,1950-05-01,2016-03-01,42.4686,"CORRECTIONVILLE, IA US",0.4538,GHCND:USC00131838,METERS,-95.795
382.5,1893-03-01,2019-10-11,43.3894,"CRESCO 1 NE, IA US",1,GHCND:USC00131954,METERS,-92.0938
395,1905-04-01,2019-08-30,41.0372,"CRESTON 2 SW, IA US",1,GHCND:USC00131962,METERS,-94.3936
338.3,2009-11-01,2019-10-11,42.7255,"DAKOTA CITY, IA US",1,GHCND:USC00132041,METERS,-94.1952
262.1,1893-03-01,2019-10-10,43.3043,"DECORAH, IA US",1,GHCND:USC00132110,METERS,-91.7952
427,1893-01-01,2019-10-11,42.0363,"DENISON, IA US",1,GHCND:USC00132171,METERS,-95.3288
251.5,1950-01-01,2019-10-10,41.6122,"DES MOINES 2ND AVE, IA US",0.0792,GHCND:USC00132207,METERS,-93.6199
248.4,1948-04-01,2019-10-10,41.5783,"DES MOINES SE 6TH, IA US",0.44,GHCND:USC00132208,METERS,-93.6055
292.3,1995-10-01,2019-10-11,41.7366,"DES MOINES WSFO JOHNSTON, IA US",1,GHCND:USC00132209,METERS,-93.7236
208.8,1954-09-01,2019-10-11,41.8108,"DE WITT, IA US",1,GHCND:USC00132235,METERS,-90.5405
188.7,2011-01-01,2019-10-07,41.7663,"DE WITT 4 S, IA US",1,GHCND:USC00132236,METERS,-90.5404
214.9,1938-01-01,2019-10-11,40.6458,"DONNELLSON, IA US",1,GHCND:USC00132299,METERS,-91.564
231,1947-04-01,2013-12-12,43.4705,"DORCHESTER, IA US",1,GHCND:USC00132311,METERS,-91.5109
189,1938-03-01,2019-10-11,42.5399,"DUBUQUE LOCK AND DAM 11, IA US",1,GHCND:USC00132364,METERS,-90.6461
312.4,1934-01-01,2011-08-06,42.7544,"DUMONT, IA US",1,GHCND:USC00132388,METERS,-92.9763
229.8,2006-06-01,2006-11-30,42.57,"DURANGO 3 W, IA US",1,GHCND:USC00132410,METERS,-90.83583
327.1,1949-03-01,2019-10-09,42.3652,"ELDORA, IA US",1,GHCND:USC00132573,METERS,-93.0971
240.2,1893-02-01,2019-10-11,42.7754,"ELKADER, IA US",1,GHCND:USC00132603,METERS,-91.4537
357.2,2003-09-01,2019-10-10,43.2419,"ELMA, IA US",0.9868,GHCND:USC00132638,METERS,-92.4433
373.4,1893-01-01,2019-10-05,43.1024,"EMMETSBURG, IA US",1,GHCND:USC00132689,METERS,-94.6833
402.3,1893-01-01,2019-10-11,43.4036,"ESTHERVILLE 4 E, IA US",1,GHCND:USC00132724,METERS,-94.7472
416.1,1954-01-01,2019-10-08,43.1833,"EVERLY 3 WNW, IA US",0.3267,GHCND:USC00132755,METERS,-95.383
301.8,2006-08-01,2008-01-31,42.6404,"FAIRBANK, IA US",1,GHCND:USC00132778,METERS,-92.0291
225.6,1893-01-01,2019-10-11,41.021,"FAIRFIELD, IA US",1,GHCND:USC00132789,METERS,-91.9553
349,1893-01-01,2019-10-11,42.88262,"FAYETTE, IA US",1,GHCND:USC00132864,METERS,-91.83025
390.1,1894-03-01,2019-10-11,43.2844,"FOREST CITY 2 NNE, IA US",1,GHCND:USC00132977,METERS,-93.6305
339.9,1899-12-01,2019-10-11,42.5836,"FORT DODGE 5 NNW, IA US",1,GHCND:USC00132999,METERS,-94.2005
161.5,1893-01-01,2019-10-10,40.6222,"FORT MADISON, IA US",1,GHCND:USC00133007,METERS,-91.334
213.1,2009-09-01,2019-10-11,42.1575,"FULTON, IA US",1,GHCND:USC00133032,METERS,-90.7063
426.7,1963-07-01,2010-12-31,42.5027,"GALVA, IA US",1,GHCND:USC00133108,METERS,-95.4183
285.9,1978-05-01,2019-10-10,42.09022,"GARWIN, IA US",1,GHCND:USC00133120,METERS,-92.6703
312.4,1899-04-01,2018-04-18,41.878,"GILMAN, IA US",1,GHCND:USC00133239,METERS,-92.7786
323.1,2008-11-01,2017-09-30,41.0516,"GLENWOOD, IA US",1,GHCND:USC00133288,METERS,-95.7491
298.7,1893-01-01,2010-12-31,41.0097,"GLENWOOD 3 SW, IA US",1,GHCND:USC00133290,METERS,-95.7736
401.1,1893-01-01,2019-10-10,41.29415,"GREENFIELD, IA US",1,GHCND:USC00133438,METERS,-94.44564
275.8,1893-01-01,2019-10-11,41.72,"GRINNELL 3 SW, IA US",1,GHCND:USC00133473,METERS,-92.749
300.2,1893-01-01,2019-10-11,42.3647,"GRUNDY CENTER, IA US",1,GHCND:USC00133487,METERS,-92.7594
324.6,1895-02-01,2019-10-11,41.6686,"GUTHRIE CENTER, IA US",1,GHCND:USC00133509,METERS,-94.4972
188.4,1937-11-01,2019-10-11,42.7858,"GUTTENBERG L AND D 10, IA US",1,GHCND:USC00133517,METERS,-91.0958
336.8,1893-01-01,2019-10-11,42.756,"HAMPTON, IA US",1,GHCND:USC00133584,METERS,-93.202
339.9,1995-03-01,2016-03-01,41.39,"HANCOCK, IA US",0.4861,GHCND:USC00133589,METERS,-95.37139
399.3,2006-01-01,2008-10-01,41.3277,"HANCOCK 7 SE, IA US",1,GHCND:USC00133590,METERS,-95.2522
355.1,1976-09-01,2019-01-26,42.2685,"HARCOURT 2 ENE, IA US",1,GHCND:USC00133623,METERS,-94.1459
387.1,1899-02-01,2016-02-24,41.6452,"HARLAN, IA US",1,GHCND:USC00133632,METERS,-95.3339
320,2008-01-01,2019-10-10,41.0772,"HASTINGS 4 NE, IA US",1,GHCND:USC00133675,METERS,-95.48
362.7,1926-08-01,2019-10-07,43.003,"HAWARDEN, IA US",1,GHCND:USC00133718,METERS,-96.485
335.3,1964-05-01,2019-09-30,42.2802,"HOLLY SPRINGS, IA US",0.7773,GHCND:USC00133900,METERS,-96.0961
417.6,1951-05-01,2019-10-11,42.4897,"HOLSTEIN, IA US",1,GHCND:USC00133909,METERS,-95.5488
337.7,1978-05-01,2017-12-28,42.30363,"HUBBARD, IA US",0.9956,GHCND:USC00133960,METERS,-93.28961
335.3,1997-06-01,2019-10-09,42.7197,"HUMBOLDT WATER PLANT, IA US",1,GHCND:USC00133980,METERS,-94.2202
402.3,1902-10-01,2010-12-31,42.3941,"IDA GROVE 5 NW, IA US",1,GHCND:USC00134038,METERS,-95.515
307.8,1862-11-01,2010-12-31,42.527,"INDEPENDENCE NUMBER 1, IA US",1,GHCND:USC00134049,METERS,-91.878
281.6,1893-01-01,2019-10-05,41.36639,"INDIANOLA 2 W, IA US",1,GHCND:USC00134063,METERS,-93.64806
249.3,1951-11-01,2016-03-01,41.4247,"INDIANOLA, IA US",0.3118,GHCND:USC00134067,METERS,-93.5869
310.6,2002-10-01,2019-10-11,43.0336,"IONIA 2 W, IA US",1,GHCND:USC00134094,METERS,-92.5018
195.1,1893-01-01,2019-10-11,41.6093,"IOWA CITY, IA US",1,GHCND:USC00134101,METERS,-91.5051
321.6,1893-01-01,2019-10-10,42.5188,"IOWA FALLS, IA US",1,GHCND:USC00134142,METERS,-93.2536
352.7,1948-04-01,2013-05-01,42.5763,"JAMES 1 NE, IA US",0.3465,GHCND:USC00134202,METERS,-96.3038
321.6,1893-01-01,2019-08-31,42.0103,"JEFFERSON, IA US",1,GHCND:USC00134228,METERS,-94.39523
318.5,1949-03-01,2018-02-09,42.3008,"JEWELL, IA US",1,GHCND:USC00134244,METERS,-93.6388
361.2,1941-08-01,2019-08-20,42.9311,"KANAWHA, IA US",1,GHCND:USC00134308,METERS,-93.7933
332.2,1950-05-01,2018-09-30,42.0727,"KENNEBEC, IA US",1,GHCND:USC00134342,METERS,-95.9955
160.6,1891-07-01,2019-10-11,40.3968,"KEOKUK LOCK DAM 19, IA US",1,GHCND:USC00134381,METERS,-91.3749
191.7,1893-01-01,2019-10-11,40.7356,"KEOSAUQUA, IA US",1,GHCND:USC00134389,METERS,-91.9696
306,2011-01-01,2017-01-01,42.6611,"KESLEY, IA US",1,GHCND:USC00134402,METERS,-92.9083
272.8,1893-06-01,2019-10-11,41.3247,"KNOXVILLE, IA US",1,GHCND:USC00134502,METERS,-93.1008
384,1955-05-01,2019-10-11,43.4177,"LAKE MILLS, IA US",1,GHCND:USC00134557,METERS,-93.5347
446.5,1912-08-01,2019-08-31,43.4483,"LAKE PARK, IA US",1,GHCND:USC00134561,METERS,-95.3247
343.8,1897-08-01,2019-10-11,40.6233,"LAMONI, IA US",1,GHCND:USC00134585,METERS,-93.9343
196,1896-06-01,2010-12-31,43.36333,"LANSING, IA US",1,GHCND:USC00134620,METERS,-91.21611
253,2003-05-01,2013-06-14,43.3197,"LANSING 4 SE, IA US",1,GHCND:USC00134624,METERS,-91.1616
364.2,1896-03-01,2019-08-31,42.7816,"LE MARS, IA US",1,GHCND:USC00134735,METERS,-96.1458
304.8,1962-01-01,2012-10-11,40.7244,"LEON 6 ESE, IA US",1,GHCND:USC00134758,METERS,-93.6452
312.4,2002-09-01,2019-10-11,41.8263,"LITTLE SIOUX 2 NW, IA US",1,GHCND:USC00134874,METERS,-96.0505
301.8,1893-01-01,2019-10-11,41.638,"LOGAN, IA US",1,GHCND:USC00134894,METERS,-95.7883
313.6,1951-01-01,2014-06-01,41.6425,"LOGAN NUMBER 2, IA US",0.3321,GHCND:USC00134898,METERS,-95.7825
370.3,1950-04-01,2019-10-11,41.1247,"LORIMOR, IA US",1,GHCND:USC00134926,METERS,-94.0513
224.9,1991-01-01,2019-10-10,41.86044,"LOWDEN, IA US",1,GHCND:USC00134963,METERS,-90.9222
301.8,1976-04-01,2019-10-11,42.4732,"MANCHESTER NUMBER 2, IA US",1,GHCND:USC00135086,METERS,-91.4516
365.8,1937-11-01,2019-10-11,42.162,"MAPLETON NUMBER 2, IA US",1,GHCND:USC00135123,METERS,-95.7836
335.3,1948-06-01,2016-03-01,42.15694,"MAPLETON, IA US",1,GHCND:USC00135127,METERS,-95.80972
203.6,1897-01-01,2019-10-11,42.0771,"MAQUOKETA, IA US",1,GHCND:USC00135131,METERS,-90.6647
265.2,1893-01-01,2019-10-11,42.0647,"MARSHALLTOWN, IA US",1,GHCND:USC00135198,METERS,-92.9244
265.2,1954-08-01,2019-10-10,42.0655,"MARSHALLTOWN POLLUTION CONTROL PLANT, IA US",0.2081,GHCND:USC00135203,METERS,-92.908
336.8,1893-05-01,2019-10-11,43.163,"MASON CITY, IA US",1,GHCND:USC00135230,METERS,-93.1952
334.4,2000-10-01,2019-01-27,43.1533,"MASON CITY NUMBER 1, IA US",1,GHCND:USC00135232,METERS,-93.198
399.3,1979-06-01,2019-08-29,41.2552,"MASSENA, IA US",1,GHCND:USC00135250,METERS,-94.765
351.7,1907-05-01,2006-09-01,42.7213,"MERRILL, IA US",0.1961,GHCND:USC00135414,METERS,-96.2402
427.3,1919-10-01,2019-08-31,43.3827,"MILFORD 4 NW, IA US",1,GHCND:USC00135493,METERS,-95.1841
347.5,1996-12-01,2002-12-31,41.17694,"MINEOLA 5 NW, IA US",1,GHCND:USC00135552,METERS,-95.76833
289.6,1896-07-01,2019-10-11,41.5836,"MONTEZUMA 1 W, IA US",1,GHCND:USC00135650,METERS,-92.5497
347.5,1893-01-01,2019-10-10,40.7052,"MOUNT AYR, IA US",1,GHCND:USC00135769,METERS,-94.2427
222.5,1893-01-01,2019-08-31,40.9486,"MOUNT PLEASANT 1 SSW, IA US",1,GHCND:USC00135796,METERS,-91.5647
167.3,1935-09-01,2019-10-10,41.4076,"MUSCATINE, IA US",1,GHCND:USC00135837,METERS,-91.0727
167.9,1893-03-01,2016-03-01,41.23,"MUSCATINE 2, IL US",0.6229,GHCND:USC00135842,METERS,-91.05
207.3,1999-02-01,2019-10-11,41.4713,"MUSCATINE 2 N, IA US",1,GHCND:USC00135844,METERS,-91.0463
349.9,1897-03-01,2019-10-11,43.0452,"NEW HAMPTON, IA US",1,GHCND:USC00135952,METERS,-92.3123
292.6,1893-01-01,2019-10-11,41.7116,"NEWTON, IA US",1,GHCND:USC00135992,METERS,-93.0297
242.9,1948-08-01,2019-10-11,41.517,"NORTH ENGLISH, IA US",0.2204,GHCND:USC00136076,METERS,-92.0597
362.7,1896-04-01,2019-10-02,43.4386,"NORTHWOOD, IA US",1,GHCND:USC00136103,METERS,-93.2252
384,1919-01-01,2019-10-11,41.3044,"OAKLAND, IA US",1,GHCND:USC00136151,METERS,-95.3844
182,1991-02-01,2016-03-01,40.92694,"OAKLAND MILLS 3 W, IA US",1,GHCND:USC00136160,METERS,-91.68
381,1967-01-01,2013-06-30,43.4144,"OCHEYEDAN, IA US",1,GHCND:USC00136190,METERS,-95.5313
355.1,2006-01-01,2019-10-11,42.6801,"OELWEIN 1 E, IA US",1,GHCND:USC00136199,METERS,-91.8751
307.8,1923-05-01,2010-12-31,42.6467,"OELWEIN 2 S, IA US",1,GHCND:USC00136200,METERS,-91.9131
323.1,1899-03-01,2011-11-15,42.0697,"ONAWA 3 NW, IA US",1,GHCND:USC00136243,METERS,-96.1258
420.6,2010-07-01,2019-10-08,43.00056,"ORANGE CITY, IA US",0.9996,GHCND:USC00136273,METERS,-96.05389
356.6,1893-01-01,2019-10-11,43.2794,"OSAGE, IA US",1,GHCND:USC00136305,METERS,-92.8106
313.3,1894-06-01,2019-10-11,41.0194,"OSCEOLA, IA US",1,GHCND:USC00136316,METERS,-93.7502
253,1893-01-01,2019-10-11,41.3213,"OSKALOOSA, IA US",1,GHCND:USC00136327,METERS,-92.6466
253.9,2000-11-01,2018-06-21,41.0101,"OTTUMWA NUMBER 1, IA US",1,GHCND:USC00136392,METERS,-92.5174
297.2,1951-09-01,2019-08-20,42.5772,"PARKERSBURG, IA US",1,GHCND:USC00136492,METERS,-92.8049
237.7,1898-05-01,2019-10-11,41.3761,"PELLA 1 S, IA US",1,GHCND:USC00136527,METERS,-92.9202
289.6,1900-10-01,2019-10-11,41.8394,"PERRY, IA US",1,GHCND:USC00136566,METERS,-94.1105
374.9,1953-12-01,2016-03-01,42.9183,"PETERSON, IA US",1,GHCND:USC00136590,METERS,-95.3369
326.7,1950-09-01,2016-03-01,41.83056,"PISGAH, IA US",0.3901,GHCND:USC00136634,METERS,-95.93111
369.4,1904-05-01,2019-10-11,42.7291,"POCAHONTAS, IA US",1,GHCND:USC00136719,METERS,-94.6613
345.9,1974-08-01,2015-08-01,42.5863,"POPEJOY 1 S, IA US",1,GHCND:USC00136755,METERS,-93.4363
355.1,1893-04-01,2019-08-31,43.09,"POSTVILLE, IA US",1,GHCND:USC00136766,METERS,-91.5581
463.3,1895-04-01,2019-10-10,43.0863,"PRIMGHAR, IA US",1,GHCND:USC00136800,METERS,-95.6291
288,1970-05-01,2013-11-30,40.7936,"PROMISE CITY, IA US",0.3174,GHCND:USC00136820,METERS,-93.1408
298.7,1953-05-01,2019-10-11,40.8744,"RANDOLPH, IA US",1,GHCND:USC00136891,METERS,-95.5666
294.1,1970-04-01,2019-10-11,40.825,"RATHBUN DAM, IA US",1,GHCND:USC00136910,METERS,-92.8925
327.4,1954-12-01,2016-03-01,41.5687,"REDFIELD 2 E, IA US",0.4755,GHCND:USC00136920,METERS,-94.1401
317,1897-02-01,2019-10-11,41.0036,"RED OAK, IA US",1,GHCND:USC00136940,METERS,-95.2419
405.4,2010-06-01,2019-10-10,42.81028,"REMSEN NUMBER 2, IA US",0.9999,GHCND:USC00136976,METERS,-95.975
308.8,1972-11-01,2014-09-30,41.9172,"RHODES 3 E, IA US",0.2207,GHCND:USC00136985,METERS,-93.1358
371.9,1948-08-01,2019-08-18,43.2947,"RINGSTED, IA US",0.1995,GHCND:USC00137058,METERS,-94.5116
411.5,1893-04-01,2019-10-11,43.43,"ROCK RAPIDS, IA US",1,GHCND:USC00137147,METERS,-96.1686
379.8,1978-05-01,2019-10-11,43.2044,"ROCK VALLEY, IA US",1,GHCND:USC00137152,METERS,-96.3061
370,1894-01-01,2019-10-11,42.3969,"ROCKWELL CITY, IA US",1,GHCND:USC00137161,METERS,-94.6291
368.8,1893-01-01,2019-10-09,42.4194,"SAC CITY, IA US",1,GHCND:USC00137312,METERS,-94.9761
347.2,1948-09-01,2019-10-11,43.3817,"ST ANSGAR, IA US",1,GHCND:USC00137326,METERS,-92.9232
472.7,1914-04-01,2019-10-10,43.1791,"SANBORN, IA US",1,GHCND:USC00137386,METERS,-95.6602
432.8,1899-03-01,2019-10-09,43.18036,"SHELDON, IA US",1,GHCND:USC00137594,METERS,-95.85321
284.4,1948-08-01,2016-09-22,42.70417,"SHELL ROCK 1 SW, IA US",0.1264,GHCND:USC00137602,METERS,-92.59056
297.2,1918-06-01,2019-10-11,40.7672,"SHENANDOAH, IA US",1,GHCND:USC00137613,METERS,-95.38
466,1893-05-01,2019-10-11,43.4047,"SIBLEY 3 NE, IA US",1,GHCND:USC00137664,METERS,-95.7483
347.5,1895-04-01,2018-05-01,40.736,"SIDNEY 1 SSE, IA US",1,GHCND:USC00137669,METERS,-95.643
223.1,1896-02-01,2019-08-31,41.3371,"SIGOURNEY, IA US",1,GHCND:USC00137678,METERS,-92.2279
414.5,1899-05-01,2019-09-08,43.0558,"SIOUX CENTER 2 SE, IA US",1,GHCND:USC00137700,METERS,-96.1525
335.3,2011-01-01,2019-10-10,42.3963,"SIOUX CITY ANG, IA US",1,GHCND:USC00137702,METERS,-96.3777
365.8,1948-04-01,2016-03-01,42.5355,"SIOUX CITY PERRY CRK, IA US",1,GHCND:USC00137713,METERS,-96.4108
432.8,1941-06-01,2019-10-10,42.893,"SIOUX RAPIDS 4 E, IA US",1,GHCND:USC00137726,METERS,-95.0652
404.2,1895-02-01,2019-10-10,43.1652,"SPENCER 1 N, IA US",1,GHCND:USC00137844,METERS,-95.1466
432.8,1893-01-01,2019-10-11,43.423,"SPIRIT LAKE, IA US",1,GHCND:USC00137859,METERS,-95.1394
339.5,2006-07-01,2019-10-10,42.6333,"STANLEY, IA US",1,GHCND:USC00137892,METERS,-91.8632
297.2,1956-07-01,2019-10-10,42.4081,"STEAMBOAT ROCK, IA US",0.9316,GHCND:USC00137932,METERS,-93.073
439.5,1893-01-01,2019-10-11,42.6469,"STORM LAKE, IA US",1,GHCND:USC00137979,METERS,-95.1933
365.8,1948-08-01,2019-10-11,42.6853,"STRAWBERRY POINT, IA US",1,GHCND:USC00138009,METERS,-91.533
359.7,1954-11-01,2019-10-11,43.45413,"SWEA CITY 5 N, IA US",1,GHCND:USC00138026,METERS,-94.30699
240.8,1998-04-01,2019-08-31,41.8497,"SWISHER, IA US",1,GHCND:USC00138062,METERS,-91.6765
249.9,1893-01-01,2010-12-31,41.7797,"TIPTON, IA US",1,GHCND:USC00138266,METERS,-91.1269
356.6,1949-12-01,2010-12-31,43.2352,"TITONKA, IA US",1,GHCND:USC00138270,METERS,-94.0416
285,1894-01-01,2019-10-11,42.03543,"TOLEDO 3 N, IA US",1,GHCND:USC00138296,METERS,-92.58046
217,1881-09-01,2016-03-01,41.2819,"TRACY 1 NE, IA US",0.244,GHCND:USC00138307,METERS,-92.8613
285,1948-08-01,2019-10-11,42.1865,"TRAER, IA US",0.2032,GHCND:USC00138315,METERS,-92.4722
321.6,1946-09-01,2019-10-11,42.8125,"TRIPOLI, IA US",1,GHCND:USC00138339,METERS,-92.2574
329.2,2002-12-01,2019-10-11,41.3894,"UNDERWOOD, IA US",1,GHCND:USC00138410,METERS,-95.6811
268.2,1919-07-01,2019-10-10,41.5338,"VAN METER, IA US",0.5108,GHCND:USC00138490,METERS,-93.9502
335.3,2010-05-01,2011-01-09,40.93417,"VILLISCA, IA US",1,GHCND:USC00138540,METERS,-94.97944
259.1,1893-01-01,2019-10-11,42.1702,"VINTON, IA US",1,GHCND:USC00138568,METERS,-92.0077
240.8,1904-04-01,2012-03-22,41.8624,"WALFORD 2 SE, IA US",1,GHCND:USC00138632,METERS,-91.8024
176.8,1898-07-01,2016-09-30,41.1805,"WAPELLO, IA US",1,GHCND:USC00138668,METERS,-91.1898
209.4,1893-01-01,2019-10-11,41.2824,"WASHINGTON, IA US",1,GHCND:USC00138688,METERS,-91.7078
350.5,1897-05-01,2019-04-22,42.5737,"WASHTA, IA US",0.3973,GHCND:USC00138693,METERS,-95.718
258.5,1997-10-01,2008-02-01,42.50056,"WATERLOO NUMBER 1, IA US",0.9992,GHCND:USC00138705,METERS,-92.33194
340.8,1954-12-01,2019-10-11,43.0603,"WAUCOMA 1 WNW, IA US",1,GHCND:USC00138742,METERS,-92.0489
388.6,1934-10-01,2013-03-31,43.2741,"WAUKON, IA US",1,GHCND:USC00138755,METERS,-91.4711
326.7,1893-01-01,2019-10-11,42.4685,"WEBSTER CITY, IA US",1,GHCND:USC00138806,METERS,-93.7974
307.8,1941-03-01,2019-10-10,42.4322,"WEBSTER CITY, IA US",0.1565,GHCND:USC00138808,METERS,-93.8061
355.1,2002-10-01,2013-04-01,42.9787,"WEST UNION 3 SE, IA US",1,GHCND:USC00138867,METERS,-91.7888
362.7,1978-05-01,2010-12-31,42.4875,"WILLIAMS, IA US",1,GHCND:USC00139062,METERS,-93.5413
237.7,1893-01-01,2019-10-11,41.6649,"WILLIAMSBURG 1 E, IA US",1,GHCND:USC00139067,METERS,-91.9977
335.3,1893-01-01,2017-03-20,41.3149,"WINTERSET 1 S, IA US",1,GHCND:USC00139132,METERS,-94.0184
335.9,1904-04-01,2019-10-10,42.1669,"ZEARING, IA US",1,GHCND:USC00139750,METERS,-93.3097
192.9,1936-11-01,2019-10-11,43.2118,"LYNXVILLE DAM 9, WI US",1,GHCND:USC00474937,METERS,-91.0985
223.1,2002-11-01,2019-10-11,41.5333,"DESOTO IOWA, IA US",0.9318,GHCND:USR0000IDES,METERS,-96.0833
273.7,2002-11-01,2019-10-11,41.5667,"NEAL SMITH IOWA, IA US",1,GHCND:USR0000INEA,METERS,-93.2583
360.3,1948-01-01,2019-10-11,41.40722,"ATLANTIC MUNICIPAL AIRPORT, IA US",0.1209,GHCND:USW00014930,METERS,-95.04667
210.9,1897-07-01,2019-10-10,40.78333,"BURLINGTON MUNICIPAL AIRPORT, IA US",1,GHCND:USW00014931,METERS,-91.12528
291.7,1945-07-01,2019-10-10,41.5338,"DES MOINES INTERNATIONAL AIRPORT, IA US",1,GHCND:USW00014933,METERS,-93.653
198.1,1948-01-01,2019-10-10,41.63278,"IOWA CITY MUNICIPAL AIRPORT, IA US",1,GHCND:USW00014937,METERS,-91.54306
373.4,1948-01-01,2019-10-10,43.1544,"MASON CITY MUNICIPAL AIRPORT, IA US",1,GHCND:USW00014940,METERS,-93.3269
333.8,1942-10-01,2019-10-10,42.3913,"SIOUX CITY AIRPORT, IA US",1,GHCND:USW00014943,METERS,-96.3791
256.6,1948-01-01,2019-10-10,41.1077,"OTTUMWA INDUSTRIAL AIRPORT, IA US",1,GHCND:USW00014950,METERS,-92.4466
407.8,1996-10-01,2019-10-08,43.16444,"SPENCER MUNICIPAL AIRPORT, IA US",1,GHCND:USW00014972,METERS,-95.20167
264.6,1953-06-01,2019-10-10,41.8833,"CEDAR RAPIDS MUNICIPAL AIRPORT, IA US",1,GHCND:USW00014990,METERS,-91.7166
280.7,2004-09-01,2019-10-10,41.5562,"DES MOINES 17 E, IA US",1,GHCND:USW00054902,METERS,-93.2855
321.9,1951-02-01,2019-10-10,42.39778,"DUBUQUE REGIONAL AIRPORT, IA US",1,GHCND:USW00094908,METERS,-90.70361
264.6,1950-03-01,2019-10-10,42.5544,"WATERLOO MUNICIPAL AIRPORT, IA US",1,GHCND:USW00094910,METERS,-92.4011
401.4,1996-07-01,2019-10-10,43.40111,"ESTHERVILLE MUNICIPAL AIRPORT, IA US",1,GHCND:USW00094971,METERS,-94.74722
228.6,1996-07-01,2019-10-10,41.61389,"DAVENPORT MUNICIPAL AIRPORT, IA US",1,GHCND:USW00094982,METERS,-90.59139
296.9,1996-10-01,2019-10-10,42.11056,"MARSHALLTOWN MUNICIPAL AIRPORT, IA US",1,GHCND:USW00094988,METERS,-92.91611
291.1,1996-10-01,2019-10-10,41.99056,"AMES MUNICIPAL AIRPORT, IA US",1,GHCND:USW00094989,METERS,-93.61889
345.9,1998-01-01,2019-10-10,40.6306,"LAMONI MUNICIPAL AIRPORT, IA US",1,GHCND:USW00094991,METERS,-93.9008
388.9,1996-07-08,2019-10-09,43.82278,"LA CROSSE, WI US",0.95,NEXRAD:KARX,METERS,-91.19111
299,1995-04-14,2019-10-09,41.73111,"DES MOINES, IA US",0.95,NEXRAD:KDMX,METERS,-93.72278
229.8,1995-01-09,2019-10-09,41.61167,"DAVENPORT, IA US",0.95,NEXRAD:KDVN,METERS,-90.58083
303.3,1994-04-14,2019-10-09,38.81028,"KANSAS CITY, MO US",0.95,NEXRAD:KEAX,METERS,-94.26417
435.9,1995-05-18,2019-10-09,43.58778,"SIOUX FALLS, SD US",0.95,NEXRAD:KFSD,METERS,-96.72889
177.4,1995-08-09,2019-10-09,40.15056,"LINCOLN, IL US",0.95,NEXRAD:KILX,METERS,-89.33667
202.1,1995-04-13,2019-10-09,41.60444,"CHICAGO, IL US",0.95,NEXRAD:KLOT,METERS,-88.08472
185.3,1992-08-04,2019-10-09,38.69889,"ST LOUIS, MO US",0.95,NEXRAD:KLSX,METERS,-90.68278
292,1995-04-27,2019-10-09,42.96778,"MILWAUKEE, WI US",0.95,NEXRAD:KMKX,METERS,-88.55056
288.3,1995-05-30,2019-10-09,44.84889,"MINNEAPOLIS, MN US",0.95,NEXRAD:KMPX,METERS,-93.56528
349.9,1995-04-18,2019-10-09,41.32028,"OMAHA, NE US",0.95,NEXRAD:KOAX,METERS,-96.36639
416.7,1995-05-09,2019-10-09,38.99694,"TOPEKA, KS US",0.95,NEXRAD:KTWX,METERS,-96.2325
602.3,1995-04-11,2019-10-09,40.32083,"HASTINGS, NE US",0.95,NEXRAD:KUEX,METERS,-98.44167
229.8,2005-01-01,2019-10-10,41.27583,"WASHINGTON MUNICIPAL AIRPORT, IA US",1,WBAN:04903,METERS,-91.67333
371.6,2005-01-01,2019-10-10,43.07778,"ALGONA MUNICIPAL AIRPORT, IA US",1,WBAN:04904,METERS,-94.27194
353.6,2005-01-01,2019-10-10,42.04944,"BOONE MUNICIPAL AIRPORT, IA US",1,WBAN:04906,METERS,-93.8475
354.2,2005-01-01,2019-10-10,42.74167,"CLARION MUNICIPAL AIRPORT, IA US",1,WBAN:04907,METERS,-93.75889
381.9,2005-01-01,2019-10-10,41.25944,"COUNCIL BLUFFS MUNICIPAL AIRPORT, IA US",1,WBAN:04908,METERS,-95.75972
367,2005-01-01,2019-10-10,42.04611,"CARROLL ARTHUR N NEU AIRPORT, IA US",1,WBAN:04910,METERS,-94.78889
320,2005-01-01,2019-10-10,41.01944,"CHARITON MUNICIPAL AIRPORT, IA US",1,WBAN:04913,METERS,-93.35944
394.4,2005-01-01,2019-10-10,41.00722,"CRESTON MUNICIPAL AIRPORT, IA US",1,WBAN:04915,METERS,-94.36306
352.7,2005-01-01,2019-10-10,43.27528,"DECORAH MUNICIPAL AIRPORT, IA US",1,WBAN:04916,METERS,-91.73917
388.9,2005-01-01,2019-10-10,41.98639,"DENISON MUNICIPAL AIRPORT, IA US",1,WBAN:04917,METERS,-95.38056
341.7,2005-01-01,2019-10-10,42.43639,"WEBSTER CITY MUNICIPAL AIRPORT, IA US",1,WBAN:04920,METERS,-93.86861
204.5,2005-01-01,2019-10-10,40.45972,"KEOKUK MUNICIPAL AIRPORT, IA US",1,WBAN:04921,METERS,-91.42833
243.5,2005-01-01,2019-10-10,41.05306,"FAIRFIELD MUNICIPAL AIRPORT, IA US",1,WBAN:04925,METERS,-91.97889
220.7,2005-01-01,2019-10-10,40.65917,"FORT MADISON MUNICIPAL AIRPORT, IA US",1,WBAN:04930,METERS,-91.32667
375.2,2005-01-01,2019-10-10,41.58417,"HARLAN MUNICIPAL AIRPORT, IA US",1,WBAN:04936,METERS,-95.33944
302.4,2005-01-01,2019-10-10,40.72167,"CLARINDA SCHENCK FIELD AIRPORT, IA US",1,WBAN:04937,METERS,-95.02639
277.4,2005-01-01,2019-10-10,41.69111,"ANKENY REGIONAL AIRPORT, IA US",1,WBAN:04938,METERS,-93.56611
364.5,2005-01-01,2019-10-10,42.77778,"LE MARS MUNICIPAL AIRPORT, IA US",1,WBAN:04942,METERS,-96.19361
223.7,2005-01-01,2019-10-10,40.94667,"MOUNT PLEASANT MUNICIPAL AIRPORT, IA US",1,WBAN:04947,METERS,-91.51111
166.7,2005-01-01,2019-10-10,41.36667,"MUSCATINE MUNICIPAL AIRPORT, IA US",1,WBAN:04950,METERS,-91.15
258.8,2005-01-01,2019-10-10,42.22389,"MONTICELLO MUNICIPAL AIRPORT, IA US",1,WBAN:04953,METERS,-91.16556
328,2005-01-01,2019-10-10,42.68083,"OELWEIN MUNICIPAL AIRPORT, IA US",1,WBAN:04955,METERS,-91.97444
431,2005-01-01,2019-03-01,42.99,"ORANGE CITY MUNICIPAL AIRPORT, IA US",1,WBAN:04959,METERS,-96.06278
282.2,2005-01-01,2019-10-10,41.29861,"KNOXVILLE MUNICIPAL AIRPORT, IA US",1,WBAN:04962,METERS,-93.11361
269.7,2005-01-01,2019-10-10,41.4,"PELLA MUNICIPAL AIRPORT, IA US",1,WBAN:04964,METERS,-92.94583
318.2,2005-01-01,2019-10-10,41.01028,"RED OAK MUNICIPAL AIRPORT, IA US",1,WBAN:04966,METERS,-95.25972
296,2005-01-01,2019-10-10,40.75139,"SHENANDOAH MUNICIPAL AIRPORT, IA US",1,WBAN:04973,METERS,-95.41333
432.5,2005-01-01,2019-10-10,43.20833,"SHELDON MUNICIPAL AIRPORT, IA US",1,WBAN:04975,METERS,-95.83333
453.5,2005-01-01,2019-10-10,42.59694,"STORM LAKE MUNICIPAL AIRPORT, IA US",1,WBAN:04976,METERS,-95.24056
290.5,2005-01-01,2019-10-10,41.67417,"NEWTON MUNICIPAL AIRPORT, IA US",1,WBAN:04977,METERS,-93.02167
257.6,2005-01-01,2019-10-10,42.21861,"VINTON VETERANS MEMORIAL AIRPARK AIRPORT, IA US",1,WBAN:04981,METERS,-92.02583
298.1,2005-01-01,2019-10-10,42.45333,"INDEPENDENCE MUNICIPAL AIRPORT, IA US",1,WBAN:04989,METERS,-91.9475
360.3,2005-01-01,2019-10-10,41.40722,"ATLANTIC MUNICIPAL AIRPORT, IA US",1,WBAN:14930,METERS,-95.04667
210.9,1948-01-01,2019-10-10,40.78333,"BURLINGTON MUNICIPAL AIRPORT, IA US",1,WBAN:14931,METERS,-91.12528
291.7,1945-01-01,2019-10-10,41.5338,"DES MOINES INTERNATIONAL AIRPORT, IA US",1,WBAN:14933,METERS,-93.653
198.1,1949-01-01,2019-10-10,41.63278,"IOWA CITY MUNICIPAL AIRPORT, IA US",0.39,WBAN:14937,METERS,-91.54306
373.4,1948-01-01,2019-10-10,43.1544,"MASON CITY MUNICIPAL AIRPORT, IA US",1,WBAN:14940,METERS,-93.3269
333.8,1942-10-01,2019-10-10,42.3913,"SIOUX CITY AIRPORT, IA US",1,WBAN:14943,METERS,-96.3791
256.6,1948-01-01,2019-10-10,41.1077,"OTTUMWA INDUSTRIAL AIRPORT, IA US",0.95,WBAN:14950,METERS,-92.4466
342.9,2005-01-01,2019-10-10,43.072504,"NORTHEAST IOWA REGIONAL AIRPORT, IA US",1,WBAN:14966,METERS,-92.610809
407.8,2005-01-01,2019-10-10,43.16444,"SPENCER MUNICIPAL AIRPORT, IA US",1,WBAN:14972,METERS,-95.20167
264.6,1973-01-01,2019-10-10,41.8833,"CEDAR RAPIDS MUNICIPAL AIRPORT, IA US",1,WBAN:14990,METERS,-91.7166
280.7,2004-09-15,2019-09-20,41.5562,"DES MOINES 17 E, IA US",1,WBAN:54902,METERS,-93.2855
256,2006-01-01,2019-10-10,41.22611,"OSKALOOSA MUNICIPAL AIRPORT, IA US",1,WBAN:54919,METERS,-92.49083
373.7,2006-01-01,2019-10-10,42.73167,"CHEROKEE MUNICIPAL AIRPORT, IA US",1,WBAN:54920,METERS,-95.55583
311.8,2009-05-10,2019-10-10,40.684,"CENTERVILLE MUNICIPAL AIRPORT, IA US",1,WBAN:54939,METERS,-92.901
374.6,2009-07-14,2019-10-10,43.23475,"FOREST CITY MUNICIPAL AIRPORT, IA US",1,WBAN:54940,METERS,-93.6241
346.6,2007-10-16,2019-10-10,42.47138,"IOWA FALLS MUNICIPAL AIRPORT, IA US",1,WBAN:54941,METERS,-93.20707
339.9,2010-03-01,2019-10-10,41.05222,"OSCEOLA MUNICIPAL AIRPORT, IA US",1,WBAN:54942,METERS,-93.68913
308.8,2009-01-01,2019-10-10,41.828,"PERRY MUNICIPAL AIRPORT, IA US",1,WBAN:54943,METERS,-94.15983
321.9,1951-02-01,2019-10-10,42.39778,"DUBUQUE REGIONAL AIRPORT, IA US",1,WBAN:94908,METERS,-90.70361
264.6,1949-01-01,2019-10-10,42.5544,"WATERLOO MUNICIPAL AIRPORT, IA US",1,WBAN:94910,METERS,-92.4011
352.3,2005-01-01,2019-10-10,42.55,"FORT DODGE OZARK AIRLINES, IA US",1,WBAN:94933,METERS,-94.18333
401.4,2005-01-01,2019-10-10,43.40111,"ESTHERVILLE MUNICIPAL AIRPORT, IA US",1,WBAN:94971,METERS,-94.74722
213.4,2005-01-01,2019-10-09,41.83333,"CLINTON MUNICIPAL AIRPORT, IA US",1,WBAN:94979,METERS,-90.33333
228.6,2005-01-01,2019-10-10,41.61389,"DAVENPORT MUNICIPAL AIRPORT, IA US",1,WBAN:94982,METERS,-90.59139
296.9,2005-01-01,2019-10-10,42.11056,"MARSHALLTOWN MUNICIPAL AIRPORT, IA US",1,WBAN:94988,METERS,-92.91611
291.1,2005-01-01,2019-10-10,41.99056,"AMES MUNICIPAL AIRPORT, IA US",1,WBAN:94989,METERS,-93.61889
345.9,2005-01-01,2019-10-10,40.6306,"LAMONI MUNICIPAL AIRPORT, IA US",1,WBAN:94991,METERS,-93.9008
393.8,2005-01-01,2019-10-10,41.7,"AUDUBON MUNICIPAL AIRPORT, IA US",1,WBAN:94998,METERS,-94.91667
